[
  {
    "id": 1,
    "name": "Jeremy Taylor",
    "latitude": -6.26426037,
    "longitude": 106.8452459
  },
  {
    "id": 2,
    "name": "Helen Howell",
    "latitude": -6.2839394,
    "longitude": 106.68179611
  },
  {
    "id": 3,
    "name": "Marie Black",
    "latitude": -6.19048278,
    "longitude": 106.75326964
  },
  {
    "id": 4,
    "name": "Elizabeth Jacobs",
    "latitude": -6.29190725,
    "longitude": 106.65996359
  },
  {
    "id": 5,
    "name": "Sara Bennett",
    "latitude": -6.36206216,
    "longitude": 106.82501077
  },
  {
    "id": 6,
    "name": "Martha Adams",
    "latitude": -6.20597295,
    "longitude": 106.84989687
  },
  {
    "id": 7,
    "name": "Larry Harrison",
    "latitude": -6.24886879,
    "longitude": 106.75395158
  },
  {
    "id": 8,
    "name": "Angela Diaz",
    "latitude": -6.31877098,
    "longitude": 106.80540173
  },
  {
    "id": 9,
    "name": "David Lewis",
    "latitude": -6.14064528,
    "longitude": 106.77360544
  },
  {
    "id": 10,
    "name": "Jonathan Dunn",
    "latitude": -6.2250577,
    "longitude": 106.74207112
  },
  {
    "id": 11,
    "name": "Charles Watson",
    "latitude": -6.16817308,
    "longitude": 106.81253172
  },
  {
    "id": 12,
    "name": "Kelly Graham",
    "latitude": -6.35148906,
    "longitude": 106.84679573
  },
  {
    "id": 13,
    "name": "Joshua Woods",
    "latitude": -6.23604668,
    "longitude": 106.68163038
  },
  {
    "id": 14,
    "name": "Laura Washington",
    "latitude": -6.16566918,
    "longitude": 106.89222472
  },
  {
    "id": 15,
    "name": "Jose Freeman",
    "latitude": -6.1934487,
    "longitude": 106.76969768
  },
  {
    "id": 16,
    "name": "Johnny Butler",
    "latitude": -6.3279842,
    "longitude": 106.81655673
  },
  {
    "id": 17,
    "name": "Carlos Wells",
    "latitude": -6.21085101,
    "longitude": 106.75122044
  },
  {
    "id": 18,
    "name": "Christina Wilson",
    "latitude": -6.34798273,
    "longitude": 106.7369944
  },
  {
    "id": 19,
    "name": "Ann Little",
    "latitude": -6.31590471,
    "longitude": 106.69713083
  },
  {
    "id": 20,
    "name": "Amy Davis",
    "latitude": -6.26771789,
    "longitude": 106.76682078
  },
  {
    "id": 21,
    "name": "Aaron Owens",
    "latitude": -6.25905948,
    "longitude": 106.91307319
  },
  {
    "id": 22,
    "name": "William Myers",
    "latitude": -6.18253146,
    "longitude": 106.72514913
  },
  {
    "id": 23,
    "name": "Clarence Ray",
    "latitude": -6.33352825,
    "longitude": 106.77760404
  },
  {
    "id": 24,
    "name": "Carl Hunt",
    "latitude": -6.35768726,
    "longitude": 106.71920839
  },
  {
    "id": 25,
    "name": "Linda Welch",
    "latitude": -6.30223438,
    "longitude": 106.85881056
  },
  {
    "id": 26,
    "name": "Ashley Banks",
    "latitude": -6.17929694,
    "longitude": 106.76314822
  },
  {
    "id": 27,
    "name": "Kathy Richards",
    "latitude": -6.25176879,
    "longitude": 106.88331914
  },
  {
    "id": 28,
    "name": "Janice Brooks",
    "latitude": -6.12921116,
    "longitude": 106.74421283
  },
  {
    "id": 29,
    "name": "Joe Romero",
    "latitude": -6.32101269,
    "longitude": 106.74077898
  },
  {
    "id": 30,
    "name": "Bobby Williams",
    "latitude": -6.27086464,
    "longitude": 106.86938848
  },
  {
    "id": 31,
    "name": "Maria Hunt",
    "latitude": -6.22686261,
    "longitude": 106.8196812
  },
  {
    "id": 32,
    "name": "Ryan Kelly",
    "latitude": -6.13217821,
    "longitude": 106.858244
  },
  {
    "id": 33,
    "name": "Eric Schmidt",
    "latitude": -6.20068681,
    "longitude": 106.78737563
  },
  {
    "id": 34,
    "name": "Jonathan Andrews",
    "latitude": -6.27153824,
    "longitude": 106.82710598
  },
  {
    "id": 35,
    "name": "Christina Johnson",
    "latitude": -6.25464791,
    "longitude": 106.77798842
  },
  {
    "id": 36,
    "name": "Edward Willis",
    "latitude": -6.17194995,
    "longitude": 106.87510132
  },
  {
    "id": 37,
    "name": "Norma Fields",
    "latitude": -6.163064,
    "longitude": 106.78813715
  },
  {
    "id": 38,
    "name": "Martin Coleman",
    "latitude": -6.23164535,
    "longitude": 106.90249195
  },
  {
    "id": 39,
    "name": "Patricia Ellis",
    "latitude": -6.35870868,
    "longitude": 106.71224565
  },
  {
    "id": 40,
    "name": "Janice Ortiz",
    "latitude": -6.25161621,
    "longitude": 106.88857251
  },
  {
    "id": 41,
    "name": "Julie Ramirez",
    "latitude": -6.2997143,
    "longitude": 106.85942983
  },
  {
    "id": 42,
    "name": "Bonnie Cox",
    "latitude": -6.18117149,
    "longitude": 106.79821623
  },
  {
    "id": 43,
    "name": "Arthur White",
    "latitude": -6.21222985,
    "longitude": 106.6746037
  },
  {
    "id": 44,
    "name": "Joseph Cunningham",
    "latitude": -6.32489114,
    "longitude": 106.83444773
  },
  {
    "id": 45,
    "name": "Steven Henderson",
    "latitude": -6.18657278,
    "longitude": 106.73773497
  },
  {
    "id": 46,
    "name": "Karen Hart",
    "latitude": -6.32870326,
    "longitude": 106.86684163
  },
  {
    "id": 47,
    "name": "Julia Lewis",
    "latitude": -6.35145485,
    "longitude": 106.85292896
  },
  {
    "id": 48,
    "name": "Chris Wallace",
    "latitude": -6.24108998,
    "longitude": 106.81176072
  },
  {
    "id": 49,
    "name": "Kathy Foster",
    "latitude": -6.1479495,
    "longitude": 106.76181626
  },
  {
    "id": 50,
    "name": "Christina Medina",
    "latitude": -6.13944522,
    "longitude": 106.78456618
  },
  {
    "id": 51,
    "name": "Judith Chapman",
    "latitude": -6.32236766,
    "longitude": 106.82348513
  },
  {
    "id": 52,
    "name": "Juan Cunningham",
    "latitude": -6.29794898,
    "longitude": 106.72041873
  },
  {
    "id": 53,
    "name": "Norma Baker",
    "latitude": -6.35849831,
    "longitude": 106.80585715
  },
  {
    "id": 54,
    "name": "Robin Foster",
    "latitude": -6.36171087,
    "longitude": 106.83235249
  },
  {
    "id": 55,
    "name": "Catherine Alexander",
    "latitude": -6.14341384,
    "longitude": 106.83553465
  },
  {
    "id": 56,
    "name": "Bruce Thomas",
    "latitude": -6.36592049,
    "longitude": 106.77733727
  },
  {
    "id": 57,
    "name": "Paula Welch",
    "latitude": -6.2004506,
    "longitude": 106.76254719
  },
  {
    "id": 58,
    "name": "Phillip Morrison",
    "latitude": -6.16916462,
    "longitude": 106.8465122
  },
  {
    "id": 59,
    "name": "Lori Jones",
    "latitude": -6.3423182,
    "longitude": 106.86286318
  },
  {
    "id": 60,
    "name": "Martin Hall",
    "latitude": -6.21078474,
    "longitude": 106.91279566
  },
  {
    "id": 61,
    "name": "Amanda Ramirez",
    "latitude": -6.31178021,
    "longitude": 106.68957075
  },
  {
    "id": 62,
    "name": "Jean Cox",
    "latitude": -6.25343334,
    "longitude": 106.69962438
  },
  {
    "id": 63,
    "name": "Martha Weaver",
    "latitude": -6.19507576,
    "longitude": 106.7178528
  },
  {
    "id": 64,
    "name": "Andrew Lane",
    "latitude": -6.18364826,
    "longitude": 106.74500725
  },
  {
    "id": 65,
    "name": "Christine Shaw",
    "latitude": -6.3112983,
    "longitude": 106.77012399
  },
  {
    "id": 66,
    "name": "Kimberly Mills",
    "latitude": -6.34050319,
    "longitude": 106.86869012
  },
  {
    "id": 67,
    "name": "Ruby Medina",
    "latitude": -6.26460454,
    "longitude": 106.67207602
  },
  {
    "id": 68,
    "name": "Stephanie Greene",
    "latitude": -6.33222297,
    "longitude": 106.87713633
  },
  {
    "id": 69,
    "name": "Deborah Bishop",
    "latitude": -6.32910567,
    "longitude": 106.72165922
  },
  {
    "id": 70,
    "name": "Joseph Webb",
    "latitude": -6.29610096,
    "longitude": 106.87266325
  },
  {
    "id": 71,
    "name": "Kevin Jackson",
    "latitude": -6.18583641,
    "longitude": 106.86228197
  },
  {
    "id": 72,
    "name": "Joseph James",
    "latitude": -6.14138429,
    "longitude": 106.7001234
  },
  {
    "id": 73,
    "name": "Teresa Perez",
    "latitude": -6.23384733,
    "longitude": 106.81997412
  },
  {
    "id": 74,
    "name": "John Murphy",
    "latitude": -6.20657008,
    "longitude": 106.73003861
  },
  {
    "id": 75,
    "name": "Amanda Bennett",
    "latitude": -6.26069785,
    "longitude": 106.82534117
  },
  {
    "id": 76,
    "name": "Tammy Mills",
    "latitude": -6.21230115,
    "longitude": 106.76097329
  },
  {
    "id": 77,
    "name": "Peter Ray",
    "latitude": -6.20037039,
    "longitude": 106.8013551
  },
  {
    "id": 78,
    "name": "Kenneth Stevens",
    "latitude": -6.2476122,
    "longitude": 106.75586382
  },
  {
    "id": 79,
    "name": "Justin Thomas",
    "latitude": -6.31075683,
    "longitude": 106.70423852
  },
  {
    "id": 80,
    "name": "Michael Davis",
    "latitude": -6.20685345,
    "longitude": 106.69084187
  },
  {
    "id": 81,
    "name": "Anna Cruz",
    "latitude": -6.25918358,
    "longitude": 106.77765601
  },
  {
    "id": 82,
    "name": "George Matthews",
    "latitude": -6.26703991,
    "longitude": 106.89637321
  },
  {
    "id": 83,
    "name": "Kimberly Garrett",
    "latitude": -6.25155619,
    "longitude": 106.75919821
  },
  {
    "id": 84,
    "name": "Virginia Owens",
    "latitude": -6.27284359,
    "longitude": 106.91143142
  },
  {
    "id": 85,
    "name": "Carolyn Cox",
    "latitude": -6.26856045,
    "longitude": 106.81924175
  },
  {
    "id": 86,
    "name": "Edward Coleman",
    "latitude": -6.17389839,
    "longitude": 106.8430483
  },
  {
    "id": 87,
    "name": "Martin Lee",
    "latitude": -6.12041818,
    "longitude": 106.81151152
  },
  {
    "id": 88,
    "name": "Kathleen King",
    "latitude": -6.23944038,
    "longitude": 106.83606364
  },
  {
    "id": 89,
    "name": "Brian Wells",
    "latitude": -6.23956158,
    "longitude": 106.84555405
  },
  {
    "id": 90,
    "name": "Kevin Reid",
    "latitude": -6.13644512,
    "longitude": 106.77111487
  },
  {
    "id": 91,
    "name": "Angela Cruz",
    "latitude": -6.37017177,
    "longitude": 106.7734718
  },
  {
    "id": 92,
    "name": "Helen Harvey",
    "latitude": -6.21589478,
    "longitude": 106.81015399
  },
  {
    "id": 93,
    "name": "Doris Hill",
    "latitude": -6.19302652,
    "longitude": 106.7951016
  },
  {
    "id": 94,
    "name": "Judith Martinez",
    "latitude": -6.29007332,
    "longitude": 106.74325994
  },
  {
    "id": 95,
    "name": "Amy Adams",
    "latitude": -6.325596,
    "longitude": 106.73029429
  },
  {
    "id": 96,
    "name": "Justin Parker",
    "latitude": -6.16015785,
    "longitude": 106.83590198
  },
  {
    "id": 97,
    "name": "Steve Harris",
    "latitude": -6.33300345,
    "longitude": 106.78681926
  },
  {
    "id": 98,
    "name": "Thomas Wheeler",
    "latitude": -6.36533074,
    "longitude": 106.8216867
  },
  {
    "id": 99,
    "name": "Aaron Burton",
    "latitude": -6.24980433,
    "longitude": 106.69370287
  },
  {
    "id": 100,
    "name": "Pamela Walker",
    "latitude": -6.32317002,
    "longitude": 106.77406089
  },
  {
    "id": 101,
    "name": "Douglas Fuller",
    "latitude": -6.20990926,
    "longitude": 106.85928412
  },
  {
    "id": 102,
    "name": "Tammy Henderson",
    "latitude": -6.25394233,
    "longitude": 106.75459694
  },
  {
    "id": 103,
    "name": "Harold Thompson",
    "latitude": -6.217682,
    "longitude": 106.81387064
  },
  {
    "id": 104,
    "name": "Roy Price",
    "latitude": -6.19350823,
    "longitude": 106.77832382
  },
  {
    "id": 105,
    "name": "Thomas Wells",
    "latitude": -6.19731366,
    "longitude": 106.78165495
  },
  {
    "id": 106,
    "name": "Amanda Torres",
    "latitude": -6.27475609,
    "longitude": 106.76347138
  },
  {
    "id": 107,
    "name": "Rebecca Porter",
    "latitude": -6.27226969,
    "longitude": 106.88640138
  },
  {
    "id": 108,
    "name": "Ryan Bennett",
    "latitude": -6.14296018,
    "longitude": 106.79201798
  },
  {
    "id": 109,
    "name": "Sarah Jacobs",
    "latitude": -6.25637257,
    "longitude": 106.89554102
  },
  {
    "id": 110,
    "name": "Paula Bishop",
    "latitude": -6.13521326,
    "longitude": 106.84621054
  },
  {
    "id": 111,
    "name": "Keith Brooks",
    "latitude": -6.32036052,
    "longitude": 106.78449794
  },
  {
    "id": 112,
    "name": "William Crawford",
    "latitude": -6.33893882,
    "longitude": 106.77544609
  },
  {
    "id": 113,
    "name": "Kathryn Russell",
    "latitude": -6.17159444,
    "longitude": 106.73783547
  },
  {
    "id": 114,
    "name": "Arthur Cox",
    "latitude": -6.28355795,
    "longitude": 106.82742047
  },
  {
    "id": 115,
    "name": "Philip Hughes",
    "latitude": -6.2249213,
    "longitude": 106.65116031
  },
  {
    "id": 116,
    "name": "Linda Reid",
    "latitude": -6.29859952,
    "longitude": 106.6650255
  },
  {
    "id": 117,
    "name": "Howard Oliver",
    "latitude": -6.24881354,
    "longitude": 106.8608669
  },
  {
    "id": 118,
    "name": "Amy Gonzalez",
    "latitude": -6.20003284,
    "longitude": 106.78621954
  },
  {
    "id": 119,
    "name": "Jonathan Rose",
    "latitude": -6.18285446,
    "longitude": 106.68047043
  },
  {
    "id": 120,
    "name": "Dorothy Gibson",
    "latitude": -6.26508577,
    "longitude": 106.68583795
  },
  {
    "id": 121,
    "name": "Betty Jackson",
    "latitude": -6.19721544,
    "longitude": 106.74929535
  },
  {
    "id": 122,
    "name": "Roger Kennedy",
    "latitude": -6.27398268,
    "longitude": 106.82132164
  },
  {
    "id": 123,
    "name": "Shirley Cole",
    "latitude": -6.34809318,
    "longitude": 106.76991925
  },
  {
    "id": 124,
    "name": "Jean Kelly",
    "latitude": -6.21246163,
    "longitude": 106.66879255
  },
  {
    "id": 125,
    "name": "Sandra Powell",
    "latitude": -6.22151136,
    "longitude": 106.68292406
  },
  {
    "id": 126,
    "name": "Christopher Greene",
    "latitude": -6.30291742,
    "longitude": 106.70950399
  },
  {
    "id": 127,
    "name": "Brenda Romero",
    "latitude": -6.23231263,
    "longitude": 106.72964303
  },
  {
    "id": 128,
    "name": "Bonnie Bishop",
    "latitude": -6.32698175,
    "longitude": 106.82723129
  },
  {
    "id": 129,
    "name": "Kenneth Foster",
    "latitude": -6.28174663,
    "longitude": 106.83585882
  },
  {
    "id": 130,
    "name": "Carolyn Hansen",
    "latitude": -6.14961172,
    "longitude": 106.74176453
  },
  {
    "id": 131,
    "name": "Steven Morrison",
    "latitude": -6.33338674,
    "longitude": 106.81969764
  },
  {
    "id": 132,
    "name": "Philip Banks",
    "latitude": -6.20310338,
    "longitude": 106.89577219
  },
  {
    "id": 133,
    "name": "Elizabeth Grant",
    "latitude": -6.23616261,
    "longitude": 106.78175616
  },
  {
    "id": 134,
    "name": "Justin Mitchell",
    "latitude": -6.15637569,
    "longitude": 106.86462743
  },
  {
    "id": 135,
    "name": "Tina Banks",
    "latitude": -6.17530025,
    "longitude": 106.82585713
  },
  {
    "id": 136,
    "name": "Joe Ferguson",
    "latitude": -6.13415785,
    "longitude": 106.81766105
  },
  {
    "id": 137,
    "name": "Douglas Thomas",
    "latitude": -6.2417193,
    "longitude": 106.9159747
  },
  {
    "id": 138,
    "name": "Juan Simmons",
    "latitude": -6.21185265,
    "longitude": 106.72143566
  },
  {
    "id": 139,
    "name": "Melissa Kelly",
    "latitude": -6.3141762,
    "longitude": 106.76174319
  },
  {
    "id": 140,
    "name": "Dennis Gilbert",
    "latitude": -6.15825474,
    "longitude": 106.76873618
  },
  {
    "id": 141,
    "name": "Bonnie Evans",
    "latitude": -6.32368956,
    "longitude": 106.7497299
  },
  {
    "id": 142,
    "name": "David Smith",
    "latitude": -6.22576879,
    "longitude": 106.73897284
  },
  {
    "id": 143,
    "name": "Lawrence Green",
    "latitude": -6.17992778,
    "longitude": 106.73837632
  },
  {
    "id": 144,
    "name": "Wayne Fowler",
    "latitude": -6.2040126,
    "longitude": 106.90388111
  },
  {
    "id": 145,
    "name": "Stephen Morgan",
    "latitude": -6.14041739,
    "longitude": 106.75870394
  },
  {
    "id": 146,
    "name": "Paula Lane",
    "latitude": -6.25429439,
    "longitude": 106.75928938
  },
  {
    "id": 147,
    "name": "Larry Anderson",
    "latitude": -6.19353638,
    "longitude": 106.8032087
  },
  {
    "id": 148,
    "name": "Michael Moreno",
    "latitude": -6.17818257,
    "longitude": 106.73427337
  },
  {
    "id": 149,
    "name": "Norma Fisher",
    "latitude": -6.12401843,
    "longitude": 106.76837183
  },
  {
    "id": 150,
    "name": "Douglas Ray",
    "latitude": -6.21989123,
    "longitude": 106.69063174
  },
  {
    "id": 151,
    "name": "Dorothy Hunter",
    "latitude": -6.24330001,
    "longitude": 106.84145339
  },
  {
    "id": 152,
    "name": "Lisa Gutierrez",
    "latitude": -6.23830274,
    "longitude": 106.65030432
  },
  {
    "id": 153,
    "name": "Joyce Chapman",
    "latitude": -6.28904275,
    "longitude": 106.79030407
  },
  {
    "id": 154,
    "name": "Sandra Russell",
    "latitude": -6.13722377,
    "longitude": 106.71845694
  },
  {
    "id": 155,
    "name": "Matthew Harvey",
    "latitude": -6.24777608,
    "longitude": 106.66193504
  },
  {
    "id": 156,
    "name": "Brenda Alvarez",
    "latitude": -6.36234598,
    "longitude": 106.71998121
  },
  {
    "id": 157,
    "name": "Ruby Roberts",
    "latitude": -6.23845554,
    "longitude": 106.88634258
  },
  {
    "id": 158,
    "name": "Robert White",
    "latitude": -6.27031304,
    "longitude": 106.86809758
  },
  {
    "id": 159,
    "name": "Frances Perkins",
    "latitude": -6.33066371,
    "longitude": 106.69588807
  },
  {
    "id": 160,
    "name": "Andrea West",
    "latitude": -6.26426918,
    "longitude": 106.75403015
  },
  {
    "id": 161,
    "name": "Diane Gonzalez",
    "latitude": -6.22492499,
    "longitude": 106.68441228
  },
  {
    "id": 162,
    "name": "Nicholas Garza",
    "latitude": -6.22350123,
    "longitude": 106.87641785
  },
  {
    "id": 163,
    "name": "Samuel Burke",
    "latitude": -6.29592479,
    "longitude": 106.78583071
  },
  {
    "id": 164,
    "name": "Anna Brown",
    "latitude": -6.19736023,
    "longitude": 106.68036487
  },
  {
    "id": 165,
    "name": "Anna Cruz",
    "latitude": -6.34295316,
    "longitude": 106.79445189
  },
  {
    "id": 166,
    "name": "Rebecca Wilson",
    "latitude": -6.31583281,
    "longitude": 106.69999774
  },
  {
    "id": 167,
    "name": "Martin Gordon",
    "latitude": -6.15368739,
    "longitude": 106.77203616
  },
  {
    "id": 168,
    "name": "Gregory Davis",
    "latitude": -6.30377233,
    "longitude": 106.80033796
  },
  {
    "id": 169,
    "name": "Janice Nelson",
    "latitude": -6.17331787,
    "longitude": 106.868098
  },
  {
    "id": 170,
    "name": "Kathy Spencer",
    "latitude": -6.2075721,
    "longitude": 106.68411368
  },
  {
    "id": 171,
    "name": "Nicole Grant",
    "latitude": -6.34720766,
    "longitude": 106.76356461
  },
  {
    "id": 172,
    "name": "Roy Wood",
    "latitude": -6.33445545,
    "longitude": 106.85600639
  },
  {
    "id": 173,
    "name": "Frank Matthews",
    "latitude": -6.22722975,
    "longitude": 106.85531141
  },
  {
    "id": 174,
    "name": "Eric Taylor",
    "latitude": -6.31083811,
    "longitude": 106.89273795
  },
  {
    "id": 175,
    "name": "Phyllis Nichols",
    "latitude": -6.28018497,
    "longitude": 106.90062384
  },
  {
    "id": 176,
    "name": "Gerald Bailey",
    "latitude": -6.20248314,
    "longitude": 106.7190508
  },
  {
    "id": 177,
    "name": "Kathy Bennett",
    "latitude": -6.2043484,
    "longitude": 106.87196718
  },
  {
    "id": 178,
    "name": "Walter Cooper",
    "latitude": -6.25592137,
    "longitude": 106.7346945
  },
  {
    "id": 179,
    "name": "Paul Perry",
    "latitude": -6.20528723,
    "longitude": 106.78381501
  },
  {
    "id": 180,
    "name": "Edward Chavez",
    "latitude": -6.18521242,
    "longitude": 106.82156515
  },
  {
    "id": 181,
    "name": "Christina Gutierrez",
    "latitude": -6.17849689,
    "longitude": 106.85641649
  },
  {
    "id": 182,
    "name": "Nicole Phillips",
    "latitude": -6.27068812,
    "longitude": 106.81989899
  },
  {
    "id": 183,
    "name": "Larry Spencer",
    "latitude": -6.27753593,
    "longitude": 106.78601259
  },
  {
    "id": 184,
    "name": "Paula Ramos",
    "latitude": -6.20326446,
    "longitude": 106.82105669
  },
  {
    "id": 185,
    "name": "Judith Cox",
    "latitude": -6.22104417,
    "longitude": 106.78334022
  },
  {
    "id": 186,
    "name": "Judith Hansen",
    "latitude": -6.18027163,
    "longitude": 106.72276705
  },
  {
    "id": 187,
    "name": "Keith Ray",
    "latitude": -6.21028849,
    "longitude": 106.79140299
  },
  {
    "id": 188,
    "name": "Julie Jacobs",
    "latitude": -6.18447875,
    "longitude": 106.7897528
  },
  {
    "id": 189,
    "name": "Eric Bradley",
    "latitude": -6.27945289,
    "longitude": 106.82686537
  },
  {
    "id": 190,
    "name": "Mildred Jacobs",
    "latitude": -6.23525508,
    "longitude": 106.71669995
  },
  {
    "id": 191,
    "name": "Brandon Jackson",
    "latitude": -6.26772611,
    "longitude": 106.70572311
  },
  {
    "id": 192,
    "name": "Theresa Lane",
    "latitude": -6.18998329,
    "longitude": 106.83260349
  },
  {
    "id": 193,
    "name": "John Baker",
    "latitude": -6.2879922,
    "longitude": 106.84338368
  },
  {
    "id": 194,
    "name": "Gloria Ward",
    "latitude": -6.17196112,
    "longitude": 106.72034393
  },
  {
    "id": 195,
    "name": "Gloria Rivera",
    "latitude": -6.1834066,
    "longitude": 106.76677535
  },
  {
    "id": 196,
    "name": "Ryan Nguyen",
    "latitude": -6.14165257,
    "longitude": 106.77019488
  },
  {
    "id": 197,
    "name": "Wanda Walker",
    "latitude": -6.27579574,
    "longitude": 106.6723508
  },
  {
    "id": 198,
    "name": "Angela Burton",
    "latitude": -6.23381189,
    "longitude": 106.775877
  },
  {
    "id": 199,
    "name": "Antonio Reynolds",
    "latitude": -6.33009013,
    "longitude": 106.82613527
  },
  {
    "id": 200,
    "name": "Jessica Lynch",
    "latitude": -6.35447032,
    "longitude": 106.80357404
  },
  {
    "id": 201,
    "name": "Janet Nichols",
    "latitude": -6.15887269,
    "longitude": 106.81727819
  },
  {
    "id": 202,
    "name": "Antonio Lawson",
    "latitude": -6.20138873,
    "longitude": 106.9051433
  },
  {
    "id": 203,
    "name": "Joan Garrett",
    "latitude": -6.25825988,
    "longitude": 106.89769924
  },
  {
    "id": 204,
    "name": "Ernest Jones",
    "latitude": -6.15935328,
    "longitude": 106.88254793
  },
  {
    "id": 205,
    "name": "Terry Brooks",
    "latitude": -6.15623851,
    "longitude": 106.76936281
  },
  {
    "id": 206,
    "name": "Chris Weaver",
    "latitude": -6.28184907,
    "longitude": 106.88060265
  },
  {
    "id": 207,
    "name": "Wanda Harvey",
    "latitude": -6.21654278,
    "longitude": 106.81455728
  },
  {
    "id": 208,
    "name": "Phillip Garza",
    "latitude": -6.24446439,
    "longitude": 106.82882731
  },
  {
    "id": 209,
    "name": "Barbara Griffin",
    "latitude": -6.27617774,
    "longitude": 106.67796799
  },
  {
    "id": 210,
    "name": "Ernest Little",
    "latitude": -6.25972058,
    "longitude": 106.89264106
  },
  {
    "id": 211,
    "name": "Jane Lawson",
    "latitude": -6.17842085,
    "longitude": 106.76012768
  },
  {
    "id": 212,
    "name": "Ronald Morrison",
    "latitude": -6.31282747,
    "longitude": 106.81189522
  },
  {
    "id": 213,
    "name": "Mary Cook",
    "latitude": -6.17200258,
    "longitude": 106.69279711
  },
  {
    "id": 214,
    "name": "Raymond Gomez",
    "latitude": -6.24007477,
    "longitude": 106.86053271
  },
  {
    "id": 215,
    "name": "Anne Ramos",
    "latitude": -6.12218099,
    "longitude": 106.77215385
  },
  {
    "id": 216,
    "name": "Rose Murphy",
    "latitude": -6.20939245,
    "longitude": 106.66109605
  },
  {
    "id": 217,
    "name": "Roger Andrews",
    "latitude": -6.31633313,
    "longitude": 106.71189308
  },
  {
    "id": 218,
    "name": "Carol Schmidt",
    "latitude": -6.15625109,
    "longitude": 106.73849161
  },
  {
    "id": 219,
    "name": "Paula Owens",
    "latitude": -6.25919104,
    "longitude": 106.88107772
  },
  {
    "id": 220,
    "name": "Susan Walker",
    "latitude": -6.33386048,
    "longitude": 106.85922313
  },
  {
    "id": 221,
    "name": "Paul Stanley",
    "latitude": -6.28550098,
    "longitude": 106.71705983
  },
  {
    "id": 222,
    "name": "Virginia Brooks",
    "latitude": -6.23503851,
    "longitude": 106.87274661
  },
  {
    "id": 223,
    "name": "Benjamin Campbell",
    "latitude": -6.28360319,
    "longitude": 106.66608023
  },
  {
    "id": 224,
    "name": "Sara Hudson",
    "latitude": -6.23798968,
    "longitude": 106.87445321
  },
  {
    "id": 225,
    "name": "Anthony Castillo",
    "latitude": -6.11828682,
    "longitude": 106.82173776
  },
  {
    "id": 226,
    "name": "Carl Fernandez",
    "latitude": -6.18978721,
    "longitude": 106.79933894
  },
  {
    "id": 227,
    "name": "Beverly Morrison",
    "latitude": -6.2129909,
    "longitude": 106.89322687
  },
  {
    "id": 228,
    "name": "Alice Carter",
    "latitude": -6.16638465,
    "longitude": 106.82868326
  },
  {
    "id": 229,
    "name": "Jean Cox",
    "latitude": -6.30259492,
    "longitude": 106.75463571
  },
  {
    "id": 230,
    "name": "Diana James",
    "latitude": -6.32187516,
    "longitude": 106.7344981
  },
  {
    "id": 231,
    "name": "Doris Hayes",
    "latitude": -6.26632924,
    "longitude": 106.90559644
  },
  {
    "id": 232,
    "name": "Anthony Stewart",
    "latitude": -6.35164213,
    "longitude": 106.76068982
  },
  {
    "id": 233,
    "name": "Julie Sims",
    "latitude": -6.23403925,
    "longitude": 106.7716881
  },
  {
    "id": 234,
    "name": "Arthur Fox",
    "latitude": -6.22476541,
    "longitude": 106.84607026
  },
  {
    "id": 235,
    "name": "Jesse Myers",
    "latitude": -6.2625975,
    "longitude": 106.76651
  },
  {
    "id": 236,
    "name": "Anthony Fields",
    "latitude": -6.32093882,
    "longitude": 106.69721602
  },
  {
    "id": 237,
    "name": "Jeffrey Fowler",
    "latitude": -6.18034873,
    "longitude": 106.72010042
  },
  {
    "id": 238,
    "name": "Thomas Little",
    "latitude": -6.25088377,
    "longitude": 106.78252185
  },
  {
    "id": 239,
    "name": "Jason Spencer",
    "latitude": -6.27466084,
    "longitude": 106.71793599
  },
  {
    "id": 240,
    "name": "Fred Ray",
    "latitude": -6.17136221,
    "longitude": 106.70524125
  },
  {
    "id": 241,
    "name": "Dorothy Ortiz",
    "latitude": -6.15689784,
    "longitude": 106.86648264
  },
  {
    "id": 242,
    "name": "Ruby Murphy",
    "latitude": -6.22517849,
    "longitude": 106.90203041
  },
  {
    "id": 243,
    "name": "Raymond Daniels",
    "latitude": -6.19520289,
    "longitude": 106.90650447
  },
  {
    "id": 244,
    "name": "Robert Mills",
    "latitude": -6.341933,
    "longitude": 106.79996743
  },
  {
    "id": 245,
    "name": "Sara Riley",
    "latitude": -6.33602087,
    "longitude": 106.85609338
  },
  {
    "id": 246,
    "name": "Mark Kennedy",
    "latitude": -6.18070788,
    "longitude": 106.84412107
  },
  {
    "id": 247,
    "name": "Douglas Chavez",
    "latitude": -6.28317238,
    "longitude": 106.83089174
  },
  {
    "id": 248,
    "name": "Juan Jacobs",
    "latitude": -6.17802519,
    "longitude": 106.73098772
  },
  {
    "id": 249,
    "name": "Marilyn Garza",
    "latitude": -6.1148717,
    "longitude": 106.82408713
  },
  {
    "id": 250,
    "name": "Martha Bowman",
    "latitude": -6.2730365,
    "longitude": 106.6874906
  },
  {
    "id": 251,
    "name": "Cheryl Graham",
    "latitude": -6.2993092,
    "longitude": 106.84661493
  },
  {
    "id": 252,
    "name": "Mildred Foster",
    "latitude": -6.17508655,
    "longitude": 106.87011633
  },
  {
    "id": 253,
    "name": "Johnny Howell",
    "latitude": -6.36058348,
    "longitude": 106.81437442
  },
  {
    "id": 254,
    "name": "Jonathan Richardson",
    "latitude": -6.13002795,
    "longitude": 106.77207966
  },
  {
    "id": 255,
    "name": "Christine Hughes",
    "latitude": -6.19824401,
    "longitude": 106.73706563
  },
  {
    "id": 256,
    "name": "Keith Nelson",
    "latitude": -6.29169841,
    "longitude": 106.84031904
  },
  {
    "id": 257,
    "name": "Wanda Palmer",
    "latitude": -6.13562484,
    "longitude": 106.72353884
  },
  {
    "id": 258,
    "name": "Ruby Elliott",
    "latitude": -6.21852198,
    "longitude": 106.83262798
  },
  {
    "id": 259,
    "name": "Jerry Mendoza",
    "latitude": -6.28136847,
    "longitude": 106.65702839
  },
  {
    "id": 260,
    "name": "Arthur Martinez",
    "latitude": -6.23414628,
    "longitude": 106.85050459
  },
  {
    "id": 261,
    "name": "Willie Kelly",
    "latitude": -6.26846121,
    "longitude": 106.76529985
  },
  {
    "id": 262,
    "name": "Walter Carr",
    "latitude": -6.29121891,
    "longitude": 106.75542444
  },
  {
    "id": 263,
    "name": "Denise Kelley",
    "latitude": -6.26862547,
    "longitude": 106.8985484
  },
  {
    "id": 264,
    "name": "Phillip Armstrong",
    "latitude": -6.1753641,
    "longitude": 106.87192534
  },
  {
    "id": 265,
    "name": "Alice Ruiz",
    "latitude": -6.30540309,
    "longitude": 106.86141723
  },
  {
    "id": 266,
    "name": "Juan Jones",
    "latitude": -6.17280702,
    "longitude": 106.7286726
  },
  {
    "id": 267,
    "name": "Virginia Fuller",
    "latitude": -6.20105647,
    "longitude": 106.84861236
  },
  {
    "id": 268,
    "name": "Shirley Torres",
    "latitude": -6.33476802,
    "longitude": 106.86949926
  },
  {
    "id": 269,
    "name": "Mildred Webb",
    "latitude": -6.18397287,
    "longitude": 106.88754979
  },
  {
    "id": 270,
    "name": "David Robertson",
    "latitude": -6.22383698,
    "longitude": 106.83206942
  },
  {
    "id": 271,
    "name": "Nancy Stewart",
    "latitude": -6.25302065,
    "longitude": 106.77672469
  },
  {
    "id": 272,
    "name": "Evelyn Graham",
    "latitude": -6.35937382,
    "longitude": 106.72808286
  },
  {
    "id": 273,
    "name": "Carl White",
    "latitude": -6.14418524,
    "longitude": 106.73685371
  },
  {
    "id": 274,
    "name": "Henry Cunningham",
    "latitude": -6.22216034,
    "longitude": 106.77180312
  },
  {
    "id": 275,
    "name": "Ronald Pierce",
    "latitude": -6.29774937,
    "longitude": 106.7256115
  },
  {
    "id": 276,
    "name": "Katherine Pierce",
    "latitude": -6.14897647,
    "longitude": 106.7970162
  },
  {
    "id": 277,
    "name": "Sara Nguyen",
    "latitude": -6.25309208,
    "longitude": 106.82453461
  },
  {
    "id": 278,
    "name": "Gregory Scott",
    "latitude": -6.33829518,
    "longitude": 106.80029176
  },
  {
    "id": 279,
    "name": "Elizabeth Snyder",
    "latitude": -6.19741193,
    "longitude": 106.7726854
  },
  {
    "id": 280,
    "name": "Edward Castillo",
    "latitude": -6.36207494,
    "longitude": 106.81871259
  },
  {
    "id": 281,
    "name": "Donald Larson",
    "latitude": -6.21932093,
    "longitude": 106.74901055
  },
  {
    "id": 282,
    "name": "Linda Wallace",
    "latitude": -6.27196712,
    "longitude": 106.8348472
  },
  {
    "id": 283,
    "name": "Kevin Scott",
    "latitude": -6.23728062,
    "longitude": 106.68875205
  },
  {
    "id": 284,
    "name": "Samuel Gomez",
    "latitude": -6.21944886,
    "longitude": 106.74577964
  },
  {
    "id": 285,
    "name": "Marilyn Dixon",
    "latitude": -6.24282947,
    "longitude": 106.79647723
  },
  {
    "id": 286,
    "name": "Joshua Brooks",
    "latitude": -6.25466084,
    "longitude": 106.69280526
  },
  {
    "id": 287,
    "name": "Joshua Jones",
    "latitude": -6.30260725,
    "longitude": 106.67241191
  },
  {
    "id": 288,
    "name": "Karen Cox",
    "latitude": -6.22415593,
    "longitude": 106.84925267
  },
  {
    "id": 289,
    "name": "Anne Rice",
    "latitude": -6.27963006,
    "longitude": 106.88298206
  },
  {
    "id": 290,
    "name": "Larry Meyer",
    "latitude": -6.23010758,
    "longitude": 106.69507532
  },
  {
    "id": 291,
    "name": "Jeffrey Watson",
    "latitude": -6.21086255,
    "longitude": 106.89531393
  },
  {
    "id": 292,
    "name": "Gary Garza",
    "latitude": -6.21669627,
    "longitude": 106.69498543
  },
  {
    "id": 293,
    "name": "Marie Williamson",
    "latitude": -6.31619477,
    "longitude": 106.86295233
  },
  {
    "id": 294,
    "name": "John Edwards",
    "latitude": -6.36599565,
    "longitude": 106.81071473
  },
  {
    "id": 295,
    "name": "Julie Mills",
    "latitude": -6.24836814,
    "longitude": 106.789287
  },
  {
    "id": 296,
    "name": "Ashley Smith",
    "latitude": -6.31559551,
    "longitude": 106.67401808
  },
  {
    "id": 297,
    "name": "Rose Barnes",
    "latitude": -6.32328143,
    "longitude": 106.81024897
  },
  {
    "id": 298,
    "name": "Charles Marshall",
    "latitude": -6.28298359,
    "longitude": 106.71838085
  },
  {
    "id": 299,
    "name": "David Pierce",
    "latitude": -6.24564621,
    "longitude": 106.86456877
  },
  {
    "id": 300,
    "name": "Carol Austin",
    "latitude": -6.32119357,
    "longitude": 106.82454476
  },
  {
    "id": 301,
    "name": "Amanda Smith",
    "latitude": -6.1783424,
    "longitude": 106.88196073
  },
  {
    "id": 302,
    "name": "Doris Wallace",
    "latitude": -6.14380376,
    "longitude": 106.77043047
  },
  {
    "id": 303,
    "name": "Joyce Wilson",
    "latitude": -6.31019365,
    "longitude": 106.73001626
  },
  {
    "id": 304,
    "name": "Rebecca Rose",
    "latitude": -6.24821183,
    "longitude": 106.77046557
  },
  {
    "id": 305,
    "name": "Chris Howell",
    "latitude": -6.25073248,
    "longitude": 106.89649817
  },
  {
    "id": 306,
    "name": "Jane Rogers",
    "latitude": -6.29207871,
    "longitude": 106.72255329
  },
  {
    "id": 307,
    "name": "Jean Ruiz",
    "latitude": -6.11814304,
    "longitude": 106.76796409
  },
  {
    "id": 308,
    "name": "Karen Dunn",
    "latitude": -6.23393881,
    "longitude": 106.85309628
  },
  {
    "id": 309,
    "name": "Jack Fields",
    "latitude": -6.25364982,
    "longitude": 106.74577116
  },
  {
    "id": 310,
    "name": "Ernest Montgomery",
    "latitude": -6.27713194,
    "longitude": 106.79908231
  },
  {
    "id": 311,
    "name": "Theresa Wilson",
    "latitude": -6.27964121,
    "longitude": 106.86638393
  },
  {
    "id": 312,
    "name": "Marie Russell",
    "latitude": -6.3579054,
    "longitude": 106.81171707
  },
  {
    "id": 313,
    "name": "Steve Garza",
    "latitude": -6.22812451,
    "longitude": 106.82005344
  },
  {
    "id": 314,
    "name": "Raymond Shaw",
    "latitude": -6.33238771,
    "longitude": 106.68287759
  },
  {
    "id": 315,
    "name": "Christina Lynch",
    "latitude": -6.18884495,
    "longitude": 106.73550013
  },
  {
    "id": 316,
    "name": "Roy Cook",
    "latitude": -6.32748666,
    "longitude": 106.84701917
  },
  {
    "id": 317,
    "name": "George Jacobs",
    "latitude": -6.35341037,
    "longitude": 106.72062081
  },
  {
    "id": 318,
    "name": "Beverly Clark",
    "latitude": -6.11814164,
    "longitude": 106.77219127
  },
  {
    "id": 319,
    "name": "Sarah Ross",
    "latitude": -6.249916,
    "longitude": 106.75116705
  },
  {
    "id": 320,
    "name": "Katherine Graham",
    "latitude": -6.27171989,
    "longitude": 106.73123639
  },
  {
    "id": 321,
    "name": "Melissa Cox",
    "latitude": -6.17973687,
    "longitude": 106.85761121
  },
  {
    "id": 322,
    "name": "Brandon Vasquez",
    "latitude": -6.25909676,
    "longitude": 106.7304013
  },
  {
    "id": 323,
    "name": "Peter Dixon",
    "latitude": -6.27164875,
    "longitude": 106.79531939
  },
  {
    "id": 324,
    "name": "Elizabeth Green",
    "latitude": -6.26236808,
    "longitude": 106.87024207
  },
  {
    "id": 325,
    "name": "Sean Murphy",
    "latitude": -6.33430183,
    "longitude": 106.76974534
  },
  {
    "id": 326,
    "name": "Samuel Andrews",
    "latitude": -6.20499711,
    "longitude": 106.82491863
  },
  {
    "id": 327,
    "name": "Michael Riley",
    "latitude": -6.29413789,
    "longitude": 106.86030353
  },
  {
    "id": 328,
    "name": "Billy Long",
    "latitude": -6.26664814,
    "longitude": 106.73448284
  },
  {
    "id": 329,
    "name": "Angela Watkins",
    "latitude": -6.30491837,
    "longitude": 106.7764615
  },
  {
    "id": 330,
    "name": "Linda Franklin",
    "latitude": -6.33771489,
    "longitude": 106.7806287
  },
  {
    "id": 331,
    "name": "Michelle Knight",
    "latitude": -6.21169483,
    "longitude": 106.81318157
  },
  {
    "id": 332,
    "name": "Stephanie Hunt",
    "latitude": -6.35481794,
    "longitude": 106.72178536
  },
  {
    "id": 333,
    "name": "Shawn Dean",
    "latitude": -6.17977162,
    "longitude": 106.85619979
  },
  {
    "id": 334,
    "name": "Daniel Perkins",
    "latitude": -6.24240846,
    "longitude": 106.70410507
  },
  {
    "id": 335,
    "name": "Debra Campbell",
    "latitude": -6.29566719,
    "longitude": 106.89037498
  },
  {
    "id": 336,
    "name": "Earl Williams",
    "latitude": -6.27068403,
    "longitude": 106.77074363
  },
  {
    "id": 337,
    "name": "James Peterson",
    "latitude": -6.10829601,
    "longitude": 106.77570039
  },
  {
    "id": 338,
    "name": "Wayne Carr",
    "latitude": -6.29648715,
    "longitude": 106.77997928
  },
  {
    "id": 339,
    "name": "Anne Stephens",
    "latitude": -6.15366671,
    "longitude": 106.74806181
  },
  {
    "id": 340,
    "name": "Irene Ross",
    "latitude": -6.24002158,
    "longitude": 106.81283079
  },
  {
    "id": 341,
    "name": "Philip Woods",
    "latitude": -6.12084074,
    "longitude": 106.74153718
  },
  {
    "id": 342,
    "name": "Thomas Jackson",
    "latitude": -6.32168569,
    "longitude": 106.76816123
  },
  {
    "id": 343,
    "name": "Laura James",
    "latitude": -6.28096836,
    "longitude": 106.85714361
  },
  {
    "id": 344,
    "name": "Karen Baker",
    "latitude": -6.13124685,
    "longitude": 106.71139325
  },
  {
    "id": 345,
    "name": "Russell Burke",
    "latitude": -6.24681322,
    "longitude": 106.80346593
  },
  {
    "id": 346,
    "name": "Aaron Black",
    "latitude": -6.11675334,
    "longitude": 106.8062493
  },
  {
    "id": 347,
    "name": "Mark Hughes",
    "latitude": -6.18624539,
    "longitude": 106.84476727
  },
  {
    "id": 348,
    "name": "Jesse Hawkins",
    "latitude": -6.34165577,
    "longitude": 106.80061212
  },
  {
    "id": 349,
    "name": "Barbara Daniels",
    "latitude": -6.17487332,
    "longitude": 106.7411063
  },
  {
    "id": 350,
    "name": "Doris Simmons",
    "latitude": -6.26758892,
    "longitude": 106.88445118
  },
  {
    "id": 351,
    "name": "Laura Morris",
    "latitude": -6.18376272,
    "longitude": 106.68492578
  },
  {
    "id": 352,
    "name": "Jonathan Diaz",
    "latitude": -6.31672822,
    "longitude": 106.75402267
  },
  {
    "id": 353,
    "name": "Scott Marshall",
    "latitude": -6.12758199,
    "longitude": 106.8135557
  },
  {
    "id": 354,
    "name": "Aaron Price",
    "latitude": -6.12510675,
    "longitude": 106.80592528
  },
  {
    "id": 355,
    "name": "Earl Morgan",
    "latitude": -6.23842693,
    "longitude": 106.87632507
  },
  {
    "id": 356,
    "name": "Matthew Hunter",
    "latitude": -6.3040437,
    "longitude": 106.83354144
  },
  {
    "id": 357,
    "name": "Angela Torres",
    "latitude": -6.19122767,
    "longitude": 106.77131961
  },
  {
    "id": 358,
    "name": "Beverly Bell",
    "latitude": -6.27783738,
    "longitude": 106.83598476
  },
  {
    "id": 359,
    "name": "Shawn Mccoy",
    "latitude": -6.1844537,
    "longitude": 106.71878328
  },
  {
    "id": 360,
    "name": "Joyce Murphy",
    "latitude": -6.21181269,
    "longitude": 106.86071529
  },
  {
    "id": 361,
    "name": "Ann Little",
    "latitude": -6.25436068,
    "longitude": 106.89902581
  },
  {
    "id": 362,
    "name": "Ernest Gonzales",
    "latitude": -6.3505062,
    "longitude": 106.85117799
  },
  {
    "id": 363,
    "name": "Roy King",
    "latitude": -6.29645065,
    "longitude": 106.78134886
  },
  {
    "id": 364,
    "name": "Paula Gutierrez",
    "latitude": -6.30746912,
    "longitude": 106.70370593
  },
  {
    "id": 365,
    "name": "Mark Marshall",
    "latitude": -6.1668335,
    "longitude": 106.86315092
  },
  {
    "id": 366,
    "name": "Paula Diaz",
    "latitude": -6.22476993,
    "longitude": 106.71953174
  },
  {
    "id": 367,
    "name": "Robin Ramirez",
    "latitude": -6.18744276,
    "longitude": 106.82089809
  },
  {
    "id": 368,
    "name": "Debra Garcia",
    "latitude": -6.3184519,
    "longitude": 106.70292018
  },
  {
    "id": 369,
    "name": "Keith Hayes",
    "latitude": -6.17395786,
    "longitude": 106.88958903
  },
  {
    "id": 370,
    "name": "Kevin Morgan",
    "latitude": -6.3373942,
    "longitude": 106.85226059
  },
  {
    "id": 371,
    "name": "Anna Daniels",
    "latitude": -6.29176129,
    "longitude": 106.78018795
  },
  {
    "id": 372,
    "name": "Rachel Burke",
    "latitude": -6.22825861,
    "longitude": 106.90566628
  },
  {
    "id": 373,
    "name": "Donald Richards",
    "latitude": -6.34007683,
    "longitude": 106.85709265
  },
  {
    "id": 374,
    "name": "Tina Holmes",
    "latitude": -6.19588068,
    "longitude": 106.73851574
  },
  {
    "id": 375,
    "name": "Earl Cruz",
    "latitude": -6.19925257,
    "longitude": 106.72747482
  },
  {
    "id": 376,
    "name": "Keith Wagner",
    "latitude": -6.22165586,
    "longitude": 106.82899381
  },
  {
    "id": 377,
    "name": "Pamela Clark",
    "latitude": -6.32191351,
    "longitude": 106.76860243
  },
  {
    "id": 378,
    "name": "Jerry Robertson",
    "latitude": -6.2463816,
    "longitude": 106.87795303
  },
  {
    "id": 379,
    "name": "Nicholas Carter",
    "latitude": -6.29626641,
    "longitude": 106.86699429
  },
  {
    "id": 380,
    "name": "Laura Larson",
    "latitude": -6.17985272,
    "longitude": 106.69881934
  },
  {
    "id": 381,
    "name": "Jerry Anderson",
    "latitude": -6.16834572,
    "longitude": 106.86206455
  },
  {
    "id": 382,
    "name": "Jerry George",
    "latitude": -6.15626756,
    "longitude": 106.71176477
  },
  {
    "id": 383,
    "name": "Carol Watson",
    "latitude": -6.33619493,
    "longitude": 106.8181818
  },
  {
    "id": 384,
    "name": "Sandra Hughes",
    "latitude": -6.24753057,
    "longitude": 106.90572257
  },
  {
    "id": 385,
    "name": "Bonnie George",
    "latitude": -6.16661162,
    "longitude": 106.83227515
  },
  {
    "id": 386,
    "name": "Carol Simpson",
    "latitude": -6.21563933,
    "longitude": 106.66380858
  },
  {
    "id": 387,
    "name": "Annie Jordan",
    "latitude": -6.16726281,
    "longitude": 106.84658387
  },
  {
    "id": 388,
    "name": "Jose Bailey",
    "latitude": -6.28321459,
    "longitude": 106.70905516
  },
  {
    "id": 389,
    "name": "Larry Wagner",
    "latitude": -6.36375607,
    "longitude": 106.78924171
  },
  {
    "id": 390,
    "name": "Charles Jenkins",
    "latitude": -6.21350172,
    "longitude": 106.77114386
  },
  {
    "id": 391,
    "name": "Emily Wallace",
    "latitude": -6.31134504,
    "longitude": 106.75185618
  },
  {
    "id": 392,
    "name": "Stephen Ortiz",
    "latitude": -6.20209218,
    "longitude": 106.83627935
  },
  {
    "id": 393,
    "name": "David Porter",
    "latitude": -6.1364823,
    "longitude": 106.82292961
  },
  {
    "id": 394,
    "name": "Timothy Scott",
    "latitude": -6.1996193,
    "longitude": 106.69816449
  },
  {
    "id": 395,
    "name": "Bruce Chapman",
    "latitude": -6.34278313,
    "longitude": 106.71430686
  },
  {
    "id": 396,
    "name": "Benjamin Fisher",
    "latitude": -6.23108742,
    "longitude": 106.67150527
  },
  {
    "id": 397,
    "name": "Joan Olson",
    "latitude": -6.18333546,
    "longitude": 106.85880986
  },
  {
    "id": 398,
    "name": "Thomas Henry",
    "latitude": -6.16998165,
    "longitude": 106.74825259
  },
  {
    "id": 399,
    "name": "Catherine Gonzales",
    "latitude": -6.11771957,
    "longitude": 106.81130276
  },
  {
    "id": 400,
    "name": "Craig Simmons",
    "latitude": -6.17275215,
    "longitude": 106.85545716
  },
  {
    "id": 401,
    "name": "Ruth Wallace",
    "latitude": -6.31558947,
    "longitude": 106.87062136
  },
  {
    "id": 402,
    "name": "Johnny Robinson",
    "latitude": -6.14620012,
    "longitude": 106.86926085
  },
  {
    "id": 403,
    "name": "Jesse Mills",
    "latitude": -6.30530073,
    "longitude": 106.83642345
  },
  {
    "id": 404,
    "name": "Kathryn Elliott",
    "latitude": -6.27445928,
    "longitude": 106.82427995
  },
  {
    "id": 405,
    "name": "Margaret Alexander",
    "latitude": -6.25304591,
    "longitude": 106.89166619
  },
  {
    "id": 406,
    "name": "Elizabeth Stanley",
    "latitude": -6.21583188,
    "longitude": 106.71844322
  },
  {
    "id": 407,
    "name": "Bonnie Turner",
    "latitude": -6.28574238,
    "longitude": 106.78157859
  },
  {
    "id": 408,
    "name": "Annie Jordan",
    "latitude": -6.26355563,
    "longitude": 106.67547778
  },
  {
    "id": 409,
    "name": "Judy Jordan",
    "latitude": -6.30095779,
    "longitude": 106.89028795
  },
  {
    "id": 410,
    "name": "Laura Bryant",
    "latitude": -6.17333377,
    "longitude": 106.83281972
  },
  {
    "id": 411,
    "name": "Rose Ford",
    "latitude": -6.2015127,
    "longitude": 106.90034135
  },
  {
    "id": 412,
    "name": "Carolyn Pierce",
    "latitude": -6.21208803,
    "longitude": 106.83256643
  },
  {
    "id": 413,
    "name": "Jesse Gilbert",
    "latitude": -6.30328936,
    "longitude": 106.79922885
  },
  {
    "id": 414,
    "name": "Larry Evans",
    "latitude": -6.15295557,
    "longitude": 106.81927324
  },
  {
    "id": 415,
    "name": "Sara Martin",
    "latitude": -6.20973505,
    "longitude": 106.7109843
  },
  {
    "id": 416,
    "name": "Jerry Miller",
    "latitude": -6.16612972,
    "longitude": 106.76646113
  },
  {
    "id": 417,
    "name": "Bonnie Bradley",
    "latitude": -6.15666931,
    "longitude": 106.70842976
  },
  {
    "id": 418,
    "name": "Gloria Oliver",
    "latitude": -6.20403354,
    "longitude": 106.87040675
  },
  {
    "id": 419,
    "name": "Steve Perry",
    "latitude": -6.18432176,
    "longitude": 106.76826456
  },
  {
    "id": 420,
    "name": "Ralph Price",
    "latitude": -6.26229916,
    "longitude": 106.86678436
  },
  {
    "id": 421,
    "name": "Joyce Rose",
    "latitude": -6.36118893,
    "longitude": 106.76974091
  },
  {
    "id": 422,
    "name": "Aaron Marshall",
    "latitude": -6.25741498,
    "longitude": 106.67788455
  },
  {
    "id": 423,
    "name": "Kenneth Morales",
    "latitude": -6.23878626,
    "longitude": 106.73472784
  },
  {
    "id": 424,
    "name": "Cheryl Morgan",
    "latitude": -6.26778443,
    "longitude": 106.90490813
  },
  {
    "id": 425,
    "name": "Earl Medina",
    "latitude": -6.19995464,
    "longitude": 106.69933334
  },
  {
    "id": 426,
    "name": "Mark Day",
    "latitude": -6.29894083,
    "longitude": 106.81154201
  },
  {
    "id": 427,
    "name": "Angela Daniels",
    "latitude": -6.16330591,
    "longitude": 106.75695662
  },
  {
    "id": 428,
    "name": "Patricia Adams",
    "latitude": -6.28578938,
    "longitude": 106.83487617
  },
  {
    "id": 429,
    "name": "Louise Chapman",
    "latitude": -6.31255174,
    "longitude": 106.78464723
  },
  {
    "id": 430,
    "name": "Matthew White",
    "latitude": -6.19217545,
    "longitude": 106.84594255
  },
  {
    "id": 431,
    "name": "Willie Diaz",
    "latitude": -6.26553809,
    "longitude": 106.64921543
  },
  {
    "id": 432,
    "name": "Jane Cox",
    "latitude": -6.21270824,
    "longitude": 106.78844834
  },
  {
    "id": 433,
    "name": "Patrick Jacobs",
    "latitude": -6.19656883,
    "longitude": 106.70351755
  },
  {
    "id": 434,
    "name": "Victor Simpson",
    "latitude": -6.32154152,
    "longitude": 106.74532212
  },
  {
    "id": 435,
    "name": "Kathy Carter",
    "latitude": -6.29849102,
    "longitude": 106.69322905
  },
  {
    "id": 436,
    "name": "Fred Myers",
    "latitude": -6.1498558,
    "longitude": 106.80208684
  },
  {
    "id": 437,
    "name": "William Richards",
    "latitude": -6.26834225,
    "longitude": 106.85258854
  },
  {
    "id": 438,
    "name": "Albert Hamilton",
    "latitude": -6.30699889,
    "longitude": 106.71617492
  },
  {
    "id": 439,
    "name": "Alan Chapman",
    "latitude": -6.30695366,
    "longitude": 106.78411412
  },
  {
    "id": 440,
    "name": "Heather Ramirez",
    "latitude": -6.24076568,
    "longitude": 106.77109084
  },
  {
    "id": 441,
    "name": "Gloria Mills",
    "latitude": -6.32968852,
    "longitude": 106.77813368
  },
  {
    "id": 442,
    "name": "Carlos Richardson",
    "latitude": -6.26911842,
    "longitude": 106.69575544
  },
  {
    "id": 443,
    "name": "Thomas Gray",
    "latitude": -6.31200079,
    "longitude": 106.69734597
  },
  {
    "id": 444,
    "name": "Judith Medina",
    "latitude": -6.17662221,
    "longitude": 106.7701286
  },
  {
    "id": 445,
    "name": "Robin Edwards",
    "latitude": -6.36420453,
    "longitude": 106.73747059
  },
  {
    "id": 446,
    "name": "Eugene Franklin",
    "latitude": -6.1434387,
    "longitude": 106.71142401
  },
  {
    "id": 447,
    "name": "Gary Jackson",
    "latitude": -6.14891495,
    "longitude": 106.69645991
  },
  {
    "id": 448,
    "name": "Aaron Cruz",
    "latitude": -6.24485449,
    "longitude": 106.79949501
  },
  {
    "id": 449,
    "name": "Paula Ryan",
    "latitude": -6.27263231,
    "longitude": 106.74075677
  },
  {
    "id": 450,
    "name": "Angela Payne",
    "latitude": -6.30705002,
    "longitude": 106.67759057
  },
  {
    "id": 451,
    "name": "Jose Griffin",
    "latitude": -6.26703702,
    "longitude": 106.73556695
  },
  {
    "id": 452,
    "name": "Joe Griffin",
    "latitude": -6.24655626,
    "longitude": 106.84715109
  },
  {
    "id": 453,
    "name": "Richard Hernandez",
    "latitude": -6.24116849,
    "longitude": 106.85908047
  },
  {
    "id": 454,
    "name": "Henry Ramirez",
    "latitude": -6.32690303,
    "longitude": 106.84861517
  },
  {
    "id": 455,
    "name": "William Collins",
    "latitude": -6.32061368,
    "longitude": 106.84938616
  },
  {
    "id": 456,
    "name": "Amanda Hunter",
    "latitude": -6.27239125,
    "longitude": 106.88848402
  },
  {
    "id": 457,
    "name": "Susan Baker",
    "latitude": -6.11263211,
    "longitude": 106.80859516
  },
  {
    "id": 458,
    "name": "Andrea Jenkins",
    "latitude": -6.25703736,
    "longitude": 106.77926154
  },
  {
    "id": 459,
    "name": "Jesse Dixon",
    "latitude": -6.32776181,
    "longitude": 106.68064934
  },
  {
    "id": 460,
    "name": "Randy Reed",
    "latitude": -6.33461678,
    "longitude": 106.78859436
  },
  {
    "id": 461,
    "name": "Roger Martinez",
    "latitude": -6.21836267,
    "longitude": 106.67302237
  },
  {
    "id": 462,
    "name": "Gregory Holmes",
    "latitude": -6.26415739,
    "longitude": 106.89513323
  },
  {
    "id": 463,
    "name": "George Perry",
    "latitude": -6.14706623,
    "longitude": 106.7100032
  },
  {
    "id": 464,
    "name": "Evelyn Reed",
    "latitude": -6.2040279,
    "longitude": 106.77526748
  },
  {
    "id": 465,
    "name": "Frances Jenkins",
    "latitude": -6.13720176,
    "longitude": 106.733584
  },
  {
    "id": 466,
    "name": "Emily Welch",
    "latitude": -6.11221924,
    "longitude": 106.81277078
  },
  {
    "id": 467,
    "name": "Michelle Butler",
    "latitude": -6.27587302,
    "longitude": 106.73779369
  },
  {
    "id": 468,
    "name": "Jane Palmer",
    "latitude": -6.28789847,
    "longitude": 106.76762264
  },
  {
    "id": 469,
    "name": "Irene Lawson",
    "latitude": -6.18288024,
    "longitude": 106.89303983
  },
  {
    "id": 470,
    "name": "Brandon Burton",
    "latitude": -6.22538659,
    "longitude": 106.69997043
  },
  {
    "id": 471,
    "name": "Joe Bennett",
    "latitude": -6.17136406,
    "longitude": 106.70688292
  },
  {
    "id": 472,
    "name": "Jimmy Flores",
    "latitude": -6.35288295,
    "longitude": 106.83406352
  },
  {
    "id": 473,
    "name": "Emily Ortiz",
    "latitude": -6.19900827,
    "longitude": 106.8681889
  },
  {
    "id": 474,
    "name": "Andrew Cruz",
    "latitude": -6.14617069,
    "longitude": 106.70339579
  },
  {
    "id": 475,
    "name": "Bobby Garza",
    "latitude": -6.34489938,
    "longitude": 106.83832333
  },
  {
    "id": 476,
    "name": "Ronald Robinson",
    "latitude": -6.21485805,
    "longitude": 106.90798327
  },
  {
    "id": 477,
    "name": "Shirley Lane",
    "latitude": -6.16226658,
    "longitude": 106.78170692
  },
  {
    "id": 478,
    "name": "Diane Ray",
    "latitude": -6.34777229,
    "longitude": 106.78818982
  },
  {
    "id": 479,
    "name": "Sean Holmes",
    "latitude": -6.11488089,
    "longitude": 106.74937307
  },
  {
    "id": 480,
    "name": "Lois Ferguson",
    "latitude": -6.29810509,
    "longitude": 106.68457625
  },
  {
    "id": 481,
    "name": "Kathleen Sullivan",
    "latitude": -6.23519651,
    "longitude": 106.84400171
  },
  {
    "id": 482,
    "name": "Ronald Hayes",
    "latitude": -6.25911282,
    "longitude": 106.90499832
  },
  {
    "id": 483,
    "name": "Nicole Hunt",
    "latitude": -6.32950668,
    "longitude": 106.77159251
  },
  {
    "id": 484,
    "name": "Annie Flores",
    "latitude": -6.12524657,
    "longitude": 106.81588529
  },
  {
    "id": 485,
    "name": "Justin Mitchell",
    "latitude": -6.30384267,
    "longitude": 106.68594446
  },
  {
    "id": 486,
    "name": "Deborah Reynolds",
    "latitude": -6.26358979,
    "longitude": 106.88254971
  },
  {
    "id": 487,
    "name": "Karen Shaw",
    "latitude": -6.10871337,
    "longitude": 106.78328729
  },
  {
    "id": 488,
    "name": "Dennis James",
    "latitude": -6.22543391,
    "longitude": 106.7819291
  },
  {
    "id": 489,
    "name": "Robert Johnston",
    "latitude": -6.19172696,
    "longitude": 106.85593662
  },
  {
    "id": 490,
    "name": "Justin Spencer",
    "latitude": -6.11428326,
    "longitude": 106.78636403
  },
  {
    "id": 491,
    "name": "Brenda Price",
    "latitude": -6.28600304,
    "longitude": 106.69298764
  },
  {
    "id": 492,
    "name": "Karen Riley",
    "latitude": -6.22492457,
    "longitude": 106.69163733
  },
  {
    "id": 493,
    "name": "Eric Price",
    "latitude": -6.24991048,
    "longitude": 106.65895756
  },
  {
    "id": 494,
    "name": "Tammy Morrison",
    "latitude": -6.26428725,
    "longitude": 106.89744936
  },
  {
    "id": 495,
    "name": "Billy Watson",
    "latitude": -6.31819347,
    "longitude": 106.72788959
  },
  {
    "id": 496,
    "name": "Frances Vasquez",
    "latitude": -6.17712405,
    "longitude": 106.89650068
  },
  {
    "id": 497,
    "name": "Charles Lane",
    "latitude": -6.156107,
    "longitude": 106.88110443
  },
  {
    "id": 498,
    "name": "Richard Richards",
    "latitude": -6.11771912,
    "longitude": 106.74446384
  },
  {
    "id": 499,
    "name": "Joe Graham",
    "latitude": -6.19347467,
    "longitude": 106.70604252
  },
  {
    "id": 500,
    "name": "Cynthia Cole",
    "latitude": -6.30713095,
    "longitude": 106.89855472
  },
  {
    "id": 501,
    "name": "Kevin Lane",
    "latitude": -6.31889633,
    "longitude": 106.6805861
  },
  {
    "id": 502,
    "name": "Rose Black",
    "latitude": -6.36195818,
    "longitude": 106.78764892
  },
  {
    "id": 503,
    "name": "Kenneth Campbell",
    "latitude": -6.33191586,
    "longitude": 106.80660571
  },
  {
    "id": 504,
    "name": "Ryan Fisher",
    "latitude": -6.17572338,
    "longitude": 106.87896786
  },
  {
    "id": 505,
    "name": "Eugene Jackson",
    "latitude": -6.32174957,
    "longitude": 106.73669974
  },
  {
    "id": 506,
    "name": "Edward Wood",
    "latitude": -6.16213361,
    "longitude": 106.75654025
  },
  {
    "id": 507,
    "name": "Janice Fields",
    "latitude": -6.14138657,
    "longitude": 106.81850475
  },
  {
    "id": 508,
    "name": "Victor Wagner",
    "latitude": -6.28874055,
    "longitude": 106.90780664
  },
  {
    "id": 509,
    "name": "Jack Moore",
    "latitude": -6.23651953,
    "longitude": 106.65931936
  },
  {
    "id": 510,
    "name": "Lori Mcdonald",
    "latitude": -6.14140648,
    "longitude": 106.80907024
  },
  {
    "id": 511,
    "name": "Laura Reynolds",
    "latitude": -6.31495805,
    "longitude": 106.67862168
  },
  {
    "id": 512,
    "name": "Teresa Gardner",
    "latitude": -6.30221996,
    "longitude": 106.87994742
  },
  {
    "id": 513,
    "name": "Jane Perry",
    "latitude": -6.13910596,
    "longitude": 106.84816027
  },
  {
    "id": 514,
    "name": "Carol Bell",
    "latitude": -6.31011613,
    "longitude": 106.70451738
  },
  {
    "id": 515,
    "name": "Carolyn Simpson",
    "latitude": -6.24892304,
    "longitude": 106.65250363
  },
  {
    "id": 516,
    "name": "Scott Fields",
    "latitude": -6.17381788,
    "longitude": 106.67951033
  },
  {
    "id": 517,
    "name": "George Peterson",
    "latitude": -6.19597616,
    "longitude": 106.73128613
  },
  {
    "id": 518,
    "name": "James Meyer",
    "latitude": -6.16229883,
    "longitude": 106.88757376
  },
  {
    "id": 519,
    "name": "Joan Garcia",
    "latitude": -6.13170075,
    "longitude": 106.82108301
  },
  {
    "id": 520,
    "name": "Jerry Hamilton",
    "latitude": -6.25462064,
    "longitude": 106.7483627
  },
  {
    "id": 521,
    "name": "Jane Martin",
    "latitude": -6.27419359,
    "longitude": 106.86298136
  },
  {
    "id": 522,
    "name": "Larry Meyer",
    "latitude": -6.3125962,
    "longitude": 106.88326428
  },
  {
    "id": 523,
    "name": "Victor Cox",
    "latitude": -6.23978605,
    "longitude": 106.88198512
  },
  {
    "id": 524,
    "name": "Ashley Brown",
    "latitude": -6.31775831,
    "longitude": 106.78569511
  },
  {
    "id": 525,
    "name": "Carl Gomez",
    "latitude": -6.14988305,
    "longitude": 106.74984979
  },
  {
    "id": 526,
    "name": "Evelyn Welch",
    "latitude": -6.16291913,
    "longitude": 106.74052197
  },
  {
    "id": 527,
    "name": "Marie Cruz",
    "latitude": -6.13886726,
    "longitude": 106.78120642
  },
  {
    "id": 528,
    "name": "Linda Bryant",
    "latitude": -6.31175335,
    "longitude": 106.67813742
  },
  {
    "id": 529,
    "name": "Albert Gomez",
    "latitude": -6.21153575,
    "longitude": 106.65905375
  },
  {
    "id": 530,
    "name": "Dennis Robinson",
    "latitude": -6.205245,
    "longitude": 106.80501641
  },
  {
    "id": 531,
    "name": "Kimberly Sullivan",
    "latitude": -6.22203155,
    "longitude": 106.78333151
  },
  {
    "id": 532,
    "name": "Aaron Burke",
    "latitude": -6.32278485,
    "longitude": 106.8251568
  },
  {
    "id": 533,
    "name": "William George",
    "latitude": -6.17803954,
    "longitude": 106.6740249
  },
  {
    "id": 534,
    "name": "Keith Davis",
    "latitude": -6.26225463,
    "longitude": 106.78559994
  },
  {
    "id": 535,
    "name": "Mark Carroll",
    "latitude": -6.13784378,
    "longitude": 106.7362912
  },
  {
    "id": 536,
    "name": "Henry Riley",
    "latitude": -6.2157161,
    "longitude": 106.90026862
  },
  {
    "id": 537,
    "name": "Helen Patterson",
    "latitude": -6.18996413,
    "longitude": 106.71693796
  },
  {
    "id": 538,
    "name": "Judith Flores",
    "latitude": -6.12518526,
    "longitude": 106.75261424
  },
  {
    "id": 539,
    "name": "Norma Ryan",
    "latitude": -6.28127204,
    "longitude": 106.77494946
  },
  {
    "id": 540,
    "name": "Kenneth Richards",
    "latitude": -6.22120065,
    "longitude": 106.65083266
  },
  {
    "id": 541,
    "name": "Todd Castillo",
    "latitude": -6.27116515,
    "longitude": 106.77681093
  },
  {
    "id": 542,
    "name": "Dennis Hudson",
    "latitude": -6.15779703,
    "longitude": 106.75336643
  },
  {
    "id": 543,
    "name": "Roy Edwards",
    "latitude": -6.30446381,
    "longitude": 106.71386414
  },
  {
    "id": 544,
    "name": "Catherine Bryant",
    "latitude": -6.24895761,
    "longitude": 106.67486867
  },
  {
    "id": 545,
    "name": "Cheryl Cunningham",
    "latitude": -6.27916962,
    "longitude": 106.84345306
  },
  {
    "id": 546,
    "name": "Matthew Howell",
    "latitude": -6.35669259,
    "longitude": 106.75964246
  },
  {
    "id": 547,
    "name": "Stephanie Larson",
    "latitude": -6.34167814,
    "longitude": 106.80879118
  },
  {
    "id": 548,
    "name": "Christina Wright",
    "latitude": -6.24249613,
    "longitude": 106.73268053
  },
  {
    "id": 549,
    "name": "Julie Hunter",
    "latitude": -6.3313296,
    "longitude": 106.87745339
  },
  {
    "id": 550,
    "name": "Harold Clark",
    "latitude": -6.2955425,
    "longitude": 106.70799164
  },
  {
    "id": 551,
    "name": "Henry Wallace",
    "latitude": -6.12064338,
    "longitude": 106.72686866
  },
  {
    "id": 552,
    "name": "Michelle Cunningham",
    "latitude": -6.3014738,
    "longitude": 106.78305715
  },
  {
    "id": 553,
    "name": "Carlos Meyer",
    "latitude": -6.35407018,
    "longitude": 106.71095169
  },
  {
    "id": 554,
    "name": "Gregory Medina",
    "latitude": -6.34459388,
    "longitude": 106.80995801
  },
  {
    "id": 555,
    "name": "Richard Day",
    "latitude": -6.15115083,
    "longitude": 106.79788342
  },
  {
    "id": 556,
    "name": "Janet Jackson",
    "latitude": -6.31612171,
    "longitude": 106.67363064
  },
  {
    "id": 557,
    "name": "Doris Warren",
    "latitude": -6.1873723,
    "longitude": 106.86567195
  },
  {
    "id": 558,
    "name": "Katherine Bennett",
    "latitude": -6.35936421,
    "longitude": 106.73597292
  },
  {
    "id": 559,
    "name": "Kenneth Morgan",
    "latitude": -6.3325536,
    "longitude": 106.68805506
  },
  {
    "id": 560,
    "name": "Denise Adams",
    "latitude": -6.34614083,
    "longitude": 106.83170651
  },
  {
    "id": 561,
    "name": "Maria Greene",
    "latitude": -6.30601083,
    "longitude": 106.72401755
  },
  {
    "id": 562,
    "name": "Jennifer Anderson",
    "latitude": -6.20849421,
    "longitude": 106.8085084
  },
  {
    "id": 563,
    "name": "Virginia Jordan",
    "latitude": -6.22273954,
    "longitude": 106.66415506
  },
  {
    "id": 564,
    "name": "Marie Carter",
    "latitude": -6.29816437,
    "longitude": 106.80308055
  },
  {
    "id": 565,
    "name": "Lisa Mccoy",
    "latitude": -6.29087512,
    "longitude": 106.66166265
  },
  {
    "id": 566,
    "name": "Adam Lane",
    "latitude": -6.21156336,
    "longitude": 106.74458978
  },
  {
    "id": 567,
    "name": "Carl Kelley",
    "latitude": -6.28875865,
    "longitude": 106.80018457
  },
  {
    "id": 568,
    "name": "Catherine Ford",
    "latitude": -6.31641649,
    "longitude": 106.70047092
  },
  {
    "id": 569,
    "name": "Paula Ruiz",
    "latitude": -6.27212744,
    "longitude": 106.66621815
  },
  {
    "id": 570,
    "name": "Ann Bell",
    "latitude": -6.28172644,
    "longitude": 106.88340667
  },
  {
    "id": 571,
    "name": "Russell Patterson",
    "latitude": -6.12592265,
    "longitude": 106.74140905
  },
  {
    "id": 572,
    "name": "Joseph Sanders",
    "latitude": -6.17865726,
    "longitude": 106.67748814
  },
  {
    "id": 573,
    "name": "Jeremy Watson",
    "latitude": -6.24570206,
    "longitude": 106.88236568
  },
  {
    "id": 574,
    "name": "Ronald Greene",
    "latitude": -6.34654091,
    "longitude": 106.77337158
  },
  {
    "id": 575,
    "name": "Karen Powell",
    "latitude": -6.16192848,
    "longitude": 106.78273146
  },
  {
    "id": 576,
    "name": "Howard Ross",
    "latitude": -6.35702693,
    "longitude": 106.82281523
  },
  {
    "id": 577,
    "name": "Randy Hall",
    "latitude": -6.23246201,
    "longitude": 106.68404346
  },
  {
    "id": 578,
    "name": "Shirley Cole",
    "latitude": -6.314152,
    "longitude": 106.88520274
  },
  {
    "id": 579,
    "name": "Diane Grant",
    "latitude": -6.15724484,
    "longitude": 106.6944342
  },
  {
    "id": 580,
    "name": "Charles Porter",
    "latitude": -6.15575181,
    "longitude": 106.81081446
  },
  {
    "id": 581,
    "name": "Beverly Gordon",
    "latitude": -6.25332405,
    "longitude": 106.89869619
  },
  {
    "id": 582,
    "name": "Lillian Hicks",
    "latitude": -6.235626,
    "longitude": 106.70701711
  },
  {
    "id": 583,
    "name": "Beverly Stevens",
    "latitude": -6.27287808,
    "longitude": 106.69896253
  },
  {
    "id": 584,
    "name": "Cheryl Andrews",
    "latitude": -6.25546504,
    "longitude": 106.70171355
  },
  {
    "id": 585,
    "name": "Samuel Miller",
    "latitude": -6.29428932,
    "longitude": 106.81887697
  },
  {
    "id": 586,
    "name": "Louis Ford",
    "latitude": -6.34616809,
    "longitude": 106.78116012
  },
  {
    "id": 587,
    "name": "Denise Evans",
    "latitude": -6.15570604,
    "longitude": 106.80812065
  },
  {
    "id": 588,
    "name": "Frank Hicks",
    "latitude": -6.2717747,
    "longitude": 106.82992178
  },
  {
    "id": 589,
    "name": "Brian Carroll",
    "latitude": -6.29629965,
    "longitude": 106.77452565
  },
  {
    "id": 590,
    "name": "Benjamin Green",
    "latitude": -6.24244803,
    "longitude": 106.84220055
  },
  {
    "id": 591,
    "name": "Albert Roberts",
    "latitude": -6.33815709,
    "longitude": 106.8671853
  },
  {
    "id": 592,
    "name": "Rachel Taylor",
    "latitude": -6.19061386,
    "longitude": 106.66690154
  },
  {
    "id": 593,
    "name": "Melissa Clark",
    "latitude": -6.30073253,
    "longitude": 106.66286829
  },
  {
    "id": 594,
    "name": "Irene Hudson",
    "latitude": -6.2170556,
    "longitude": 106.68148701
  },
  {
    "id": 595,
    "name": "Fred Ruiz",
    "latitude": -6.29620734,
    "longitude": 106.74799979
  },
  {
    "id": 596,
    "name": "Gary Coleman",
    "latitude": -6.29308038,
    "longitude": 106.88331587
  },
  {
    "id": 597,
    "name": "Steve Foster",
    "latitude": -6.26761573,
    "longitude": 106.71920678
  },
  {
    "id": 598,
    "name": "Albert Williams",
    "latitude": -6.26146487,
    "longitude": 106.81637657
  },
  {
    "id": 599,
    "name": "Justin Bennett",
    "latitude": -6.18198704,
    "longitude": 106.70671543
  },
  {
    "id": 600,
    "name": "James Butler",
    "latitude": -6.23511384,
    "longitude": 106.72510266
  },
  {
    "id": 601,
    "name": "Gloria Palmer",
    "latitude": -6.22898333,
    "longitude": 106.71116097
  },
  {
    "id": 602,
    "name": "Stephen Jenkins",
    "latitude": -6.28036424,
    "longitude": 106.65667945
  },
  {
    "id": 603,
    "name": "Doris Fowler",
    "latitude": -6.14442853,
    "longitude": 106.72421451
  },
  {
    "id": 604,
    "name": "Sandra Ray",
    "latitude": -6.13078479,
    "longitude": 106.74421979
  },
  {
    "id": 605,
    "name": "Rose Ruiz",
    "latitude": -6.32643438,
    "longitude": 106.85320961
  },
  {
    "id": 606,
    "name": "Jacqueline Hunter",
    "latitude": -6.29247597,
    "longitude": 106.79033981
  },
  {
    "id": 607,
    "name": "Douglas Cooper",
    "latitude": -6.28768712,
    "longitude": 106.7996238
  },
  {
    "id": 608,
    "name": "Jennifer Fuller",
    "latitude": -6.18037353,
    "longitude": 106.89209476
  },
  {
    "id": 609,
    "name": "Justin Mills",
    "latitude": -6.20380172,
    "longitude": 106.76609159
  },
  {
    "id": 610,
    "name": "Virginia Edwards",
    "latitude": -6.34279737,
    "longitude": 106.77833229
  },
  {
    "id": 611,
    "name": "Andrea Frazier",
    "latitude": -6.19575842,
    "longitude": 106.89721683
  },
  {
    "id": 612,
    "name": "Joan Turner",
    "latitude": -6.1823095,
    "longitude": 106.87733299
  },
  {
    "id": 613,
    "name": "Brian Adams",
    "latitude": -6.20421384,
    "longitude": 106.86625925
  },
  {
    "id": 614,
    "name": "Alan Bowman",
    "latitude": -6.32947439,
    "longitude": 106.73022729
  },
  {
    "id": 615,
    "name": "Wayne Carroll",
    "latitude": -6.20688804,
    "longitude": 106.90057107
  },
  {
    "id": 616,
    "name": "Adam Tucker",
    "latitude": -6.31268544,
    "longitude": 106.67716691
  },
  {
    "id": 617,
    "name": "Jose Vasquez",
    "latitude": -6.22482587,
    "longitude": 106.70066463
  },
  {
    "id": 618,
    "name": "Walter Stevens",
    "latitude": -6.21657097,
    "longitude": 106.67499938
  },
  {
    "id": 619,
    "name": "Anne Bradley",
    "latitude": -6.2316812,
    "longitude": 106.64830552
  },
  {
    "id": 620,
    "name": "Samuel Watkins",
    "latitude": -6.21846001,
    "longitude": 106.83656336
  },
  {
    "id": 621,
    "name": "Daniel Dunn",
    "latitude": -6.2816607,
    "longitude": 106.83495949
  },
  {
    "id": 622,
    "name": "Sandra Graham",
    "latitude": -6.33124833,
    "longitude": 106.76599044
  },
  {
    "id": 623,
    "name": "Jose Gibson",
    "latitude": -6.24645892,
    "longitude": 106.69944862
  },
  {
    "id": 624,
    "name": "Daniel Harris",
    "latitude": -6.14781621,
    "longitude": 106.82899969
  },
  {
    "id": 625,
    "name": "Willie Hill",
    "latitude": -6.29651735,
    "longitude": 106.74941467
  },
  {
    "id": 626,
    "name": "Louise Castillo",
    "latitude": -6.33685738,
    "longitude": 106.77660097
  },
  {
    "id": 627,
    "name": "Wanda Gray",
    "latitude": -6.14546349,
    "longitude": 106.73640487
  },
  {
    "id": 628,
    "name": "Brian Washington",
    "latitude": -6.26466693,
    "longitude": 106.74649388
  },
  {
    "id": 629,
    "name": "Willie Watkins",
    "latitude": -6.22775739,
    "longitude": 106.78251237
  },
  {
    "id": 630,
    "name": "Kenneth Ford",
    "latitude": -6.3043904,
    "longitude": 106.780144
  },
  {
    "id": 631,
    "name": "Karen Dunn",
    "latitude": -6.2594319,
    "longitude": 106.72505141
  },
  {
    "id": 632,
    "name": "Kathy Armstrong",
    "latitude": -6.21652253,
    "longitude": 106.68815585
  },
  {
    "id": 633,
    "name": "Eric Franklin",
    "latitude": -6.21517549,
    "longitude": 106.9113822
  },
  {
    "id": 634,
    "name": "Frank Moore",
    "latitude": -6.30174343,
    "longitude": 106.79876824
  },
  {
    "id": 635,
    "name": "Edward Mendoza",
    "latitude": -6.2761269,
    "longitude": 106.73648715
  },
  {
    "id": 636,
    "name": "Janice Collins",
    "latitude": -6.35686434,
    "longitude": 106.76259463
  },
  {
    "id": 637,
    "name": "Christine Allen",
    "latitude": -6.28915104,
    "longitude": 106.74676195
  },
  {
    "id": 638,
    "name": "Antonio Shaw",
    "latitude": -6.30984002,
    "longitude": 106.84872198
  },
  {
    "id": 639,
    "name": "Amanda Powell",
    "latitude": -6.27201695,
    "longitude": 106.72594519
  },
  {
    "id": 640,
    "name": "Jennifer Hughes",
    "latitude": -6.3001782,
    "longitude": 106.80692631
  },
  {
    "id": 641,
    "name": "Adam Ramirez",
    "latitude": -6.15028205,
    "longitude": 106.71725845
  },
  {
    "id": 642,
    "name": "Arthur Shaw",
    "latitude": -6.33683275,
    "longitude": 106.78028471
  },
  {
    "id": 643,
    "name": "Anna Wallace",
    "latitude": -6.11509736,
    "longitude": 106.79029424
  },
  {
    "id": 644,
    "name": "Walter Wells",
    "latitude": -6.15483342,
    "longitude": 106.72011884
  },
  {
    "id": 645,
    "name": "Patrick Mcdonald",
    "latitude": -6.20771211,
    "longitude": 106.67178874
  },
  {
    "id": 646,
    "name": "James Murray",
    "latitude": -6.17100652,
    "longitude": 106.71423512
  },
  {
    "id": 647,
    "name": "Adam Vasquez",
    "latitude": -6.22786933,
    "longitude": 106.73031738
  },
  {
    "id": 648,
    "name": "Victor Reynolds",
    "latitude": -6.1404125,
    "longitude": 106.69545881
  },
  {
    "id": 649,
    "name": "Anthony Ryan",
    "latitude": -6.17492969,
    "longitude": 106.82935786
  },
  {
    "id": 650,
    "name": "Deborah Vasquez",
    "latitude": -6.37148273,
    "longitude": 106.8201977
  },
  {
    "id": 651,
    "name": "Lois Carr",
    "latitude": -6.28002083,
    "longitude": 106.8190962
  },
  {
    "id": 652,
    "name": "Anna Powell",
    "latitude": -6.19168351,
    "longitude": 106.78272529
  },
  {
    "id": 653,
    "name": "Arthur Taylor",
    "latitude": -6.23835272,
    "longitude": 106.91077327
  },
  {
    "id": 654,
    "name": "Kathy Sanchez",
    "latitude": -6.15600534,
    "longitude": 106.69582466
  },
  {
    "id": 655,
    "name": "Jason Woods",
    "latitude": -6.25102987,
    "longitude": 106.72255195
  },
  {
    "id": 656,
    "name": "Laura Pierce",
    "latitude": -6.17715054,
    "longitude": 106.88476893
  },
  {
    "id": 657,
    "name": "Frank Ferguson",
    "latitude": -6.12772484,
    "longitude": 106.73778367
  },
  {
    "id": 658,
    "name": "Jose Cole",
    "latitude": -6.12115617,
    "longitude": 106.76687451
  },
  {
    "id": 659,
    "name": "Steve Fuller",
    "latitude": -6.28818087,
    "longitude": 106.84919682
  },
  {
    "id": 660,
    "name": "Philip Bradley",
    "latitude": -6.18754779,
    "longitude": 106.82224083
  },
  {
    "id": 661,
    "name": "Laura Gardner",
    "latitude": -6.21989578,
    "longitude": 106.76850416
  },
  {
    "id": 662,
    "name": "Lisa Castillo",
    "latitude": -6.19303625,
    "longitude": 106.87497716
  },
  {
    "id": 663,
    "name": "Larry Mitchell",
    "latitude": -6.36344008,
    "longitude": 106.77494349
  },
  {
    "id": 664,
    "name": "Nicole Welch",
    "latitude": -6.17965293,
    "longitude": 106.6773366
  },
  {
    "id": 665,
    "name": "Douglas Montgomery",
    "latitude": -6.34747742,
    "longitude": 106.82689804
  },
  {
    "id": 666,
    "name": "Ruth Wood",
    "latitude": -6.15178269,
    "longitude": 106.70811088
  },
  {
    "id": 667,
    "name": "Terry Nelson",
    "latitude": -6.21683517,
    "longitude": 106.65220538
  },
  {
    "id": 668,
    "name": "Harry Gutierrez",
    "latitude": -6.34428188,
    "longitude": 106.69788712
  },
  {
    "id": 669,
    "name": "Melissa Spencer",
    "latitude": -6.26994468,
    "longitude": 106.90671966
  },
  {
    "id": 670,
    "name": "Emily Fox",
    "latitude": -6.19348586,
    "longitude": 106.81645655
  },
  {
    "id": 671,
    "name": "Carol Ryan",
    "latitude": -6.30793432,
    "longitude": 106.81080701
  },
  {
    "id": 672,
    "name": "Patricia Armstrong",
    "latitude": -6.19239351,
    "longitude": 106.77472358
  },
  {
    "id": 673,
    "name": "Beverly Gordon",
    "latitude": -6.21778995,
    "longitude": 106.66687546
  },
  {
    "id": 674,
    "name": "Alice Chapman",
    "latitude": -6.27460338,
    "longitude": 106.82164921
  },
  {
    "id": 675,
    "name": "Amanda Berry",
    "latitude": -6.36028026,
    "longitude": 106.76138627
  },
  {
    "id": 676,
    "name": "Annie Nguyen",
    "latitude": -6.24051895,
    "longitude": 106.82185001
  },
  {
    "id": 677,
    "name": "Daniel Foster",
    "latitude": -6.22084809,
    "longitude": 106.73681204
  },
  {
    "id": 678,
    "name": "Phyllis Wood",
    "latitude": -6.16918575,
    "longitude": 106.86314244
  },
  {
    "id": 679,
    "name": "Robin Gray",
    "latitude": -6.17647689,
    "longitude": 106.8970427
  },
  {
    "id": 680,
    "name": "Brian Greene",
    "latitude": -6.30087478,
    "longitude": 106.68822063
  },
  {
    "id": 681,
    "name": "Bobby Cunningham",
    "latitude": -6.20776686,
    "longitude": 106.73337897
  },
  {
    "id": 682,
    "name": "Judy Burke",
    "latitude": -6.22931877,
    "longitude": 106.85926002
  },
  {
    "id": 683,
    "name": "Margaret Nichols",
    "latitude": -6.30965662,
    "longitude": 106.80102128
  },
  {
    "id": 684,
    "name": "Carol Murphy",
    "latitude": -6.17382281,
    "longitude": 106.75999776
  },
  {
    "id": 685,
    "name": "Tina Payne",
    "latitude": -6.24311064,
    "longitude": 106.72372245
  },
  {
    "id": 686,
    "name": "Margaret Kim",
    "latitude": -6.35824663,
    "longitude": 106.84456307
  },
  {
    "id": 687,
    "name": "Stephanie Rice",
    "latitude": -6.23465206,
    "longitude": 106.77431993
  },
  {
    "id": 688,
    "name": "Lawrence Wagner",
    "latitude": -6.19224982,
    "longitude": 106.66722963
  },
  {
    "id": 689,
    "name": "James Chavez",
    "latitude": -6.34198199,
    "longitude": 106.70490065
  },
  {
    "id": 690,
    "name": "Adam Kelley",
    "latitude": -6.25120027,
    "longitude": 106.78025136
  },
  {
    "id": 691,
    "name": "Jose Hernandez",
    "latitude": -6.20002437,
    "longitude": 106.73401422
  },
  {
    "id": 692,
    "name": "Victor Mccoy",
    "latitude": -6.32349132,
    "longitude": 106.8396821
  },
  {
    "id": 693,
    "name": "Janice Stanley",
    "latitude": -6.20178149,
    "longitude": 106.73602502
  },
  {
    "id": 694,
    "name": "Elizabeth Adams",
    "latitude": -6.17650622,
    "longitude": 106.76839885
  },
  {
    "id": 695,
    "name": "Phyllis Holmes",
    "latitude": -6.22071354,
    "longitude": 106.76705986
  },
  {
    "id": 696,
    "name": "Tina Clark",
    "latitude": -6.30597537,
    "longitude": 106.68989477
  },
  {
    "id": 697,
    "name": "Willie Reynolds",
    "latitude": -6.18347642,
    "longitude": 106.71163937
  },
  {
    "id": 698,
    "name": "Jessica Oliver",
    "latitude": -6.10891073,
    "longitude": 106.76720396
  },
  {
    "id": 699,
    "name": "Daniel Larson",
    "latitude": -6.12480207,
    "longitude": 106.74208766
  },
  {
    "id": 700,
    "name": "Gary Little",
    "latitude": -6.2196356,
    "longitude": 106.65546491
  },
  {
    "id": 701,
    "name": "Steven Meyer",
    "latitude": -6.15288243,
    "longitude": 106.86072068
  },
  {
    "id": 702,
    "name": "David Burton",
    "latitude": -6.29712105,
    "longitude": 106.66762422
  },
  {
    "id": 703,
    "name": "Laura Adams",
    "latitude": -6.30774653,
    "longitude": 106.82153812
  },
  {
    "id": 704,
    "name": "Jonathan Kelley",
    "latitude": -6.30830912,
    "longitude": 106.82533426
  },
  {
    "id": 705,
    "name": "Paul Coleman",
    "latitude": -6.21613139,
    "longitude": 106.7693052
  },
  {
    "id": 706,
    "name": "James Daniels",
    "latitude": -6.3494373,
    "longitude": 106.77537171
  },
  {
    "id": 707,
    "name": "Victor Dean",
    "latitude": -6.24514788,
    "longitude": 106.66525806
  },
  {
    "id": 708,
    "name": "Brandon Ramos",
    "latitude": -6.17613909,
    "longitude": 106.68617539
  },
  {
    "id": 709,
    "name": "Billy Watkins",
    "latitude": -6.36581016,
    "longitude": 106.753469
  },
  {
    "id": 710,
    "name": "Robin Evans",
    "latitude": -6.18403011,
    "longitude": 106.76322017
  },
  {
    "id": 711,
    "name": "Deborah Welch",
    "latitude": -6.21976325,
    "longitude": 106.83718153
  },
  {
    "id": 712,
    "name": "Emily Ramirez",
    "latitude": -6.15133358,
    "longitude": 106.78271585
  },
  {
    "id": 713,
    "name": "Wayne Stephens",
    "latitude": -6.13548211,
    "longitude": 106.77399266
  },
  {
    "id": 714,
    "name": "Anthony Thompson",
    "latitude": -6.21629565,
    "longitude": 106.8469218
  },
  {
    "id": 715,
    "name": "Robert Lee",
    "latitude": -6.1334055,
    "longitude": 106.7122701
  },
  {
    "id": 716,
    "name": "Carlos Cole",
    "latitude": -6.24442916,
    "longitude": 106.77045872
  },
  {
    "id": 717,
    "name": "Diane Robinson",
    "latitude": -6.16995431,
    "longitude": 106.8242181
  },
  {
    "id": 718,
    "name": "Maria Woods",
    "latitude": -6.18887474,
    "longitude": 106.73858601
  },
  {
    "id": 719,
    "name": "Randy Bryant",
    "latitude": -6.13795149,
    "longitude": 106.71145235
  },
  {
    "id": 720,
    "name": "Ashley Green",
    "latitude": -6.18525385,
    "longitude": 106.78918038
  },
  {
    "id": 721,
    "name": "Matthew Sanders",
    "latitude": -6.15708073,
    "longitude": 106.74366202
  },
  {
    "id": 722,
    "name": "Christine Meyer",
    "latitude": -6.22594751,
    "longitude": 106.78742069
  },
  {
    "id": 723,
    "name": "Lois Wheeler",
    "latitude": -6.14124222,
    "longitude": 106.7353148
  },
  {
    "id": 724,
    "name": "Michelle Larson",
    "latitude": -6.19952308,
    "longitude": 106.70828095
  },
  {
    "id": 725,
    "name": "Scott Robinson",
    "latitude": -6.16668268,
    "longitude": 106.70826035
  },
  {
    "id": 726,
    "name": "Harold Lawson",
    "latitude": -6.29144873,
    "longitude": 106.71321497
  },
  {
    "id": 727,
    "name": "Angela Diaz",
    "latitude": -6.31451499,
    "longitude": 106.72475202
  },
  {
    "id": 728,
    "name": "Jack Hughes",
    "latitude": -6.21278113,
    "longitude": 106.65452313
  },
  {
    "id": 729,
    "name": "Virginia Campbell",
    "latitude": -6.14002924,
    "longitude": 106.83041131
  },
  {
    "id": 730,
    "name": "Betty Green",
    "latitude": -6.23034722,
    "longitude": 106.82577482
  },
  {
    "id": 731,
    "name": "Joyce Davis",
    "latitude": -6.16208797,
    "longitude": 106.85007903
  },
  {
    "id": 732,
    "name": "Joseph Ryan",
    "latitude": -6.19024062,
    "longitude": 106.74155864
  },
  {
    "id": 733,
    "name": "Irene Ross",
    "latitude": -6.25291053,
    "longitude": 106.70188089
  },
  {
    "id": 734,
    "name": "Beverly Kelley",
    "latitude": -6.35776687,
    "longitude": 106.79498922
  },
  {
    "id": 735,
    "name": "Theresa Lane",
    "latitude": -6.24629888,
    "longitude": 106.70695135
  },
  {
    "id": 736,
    "name": "Marilyn Day",
    "latitude": -6.29881021,
    "longitude": 106.8688659
  },
  {
    "id": 737,
    "name": "Wayne Ford",
    "latitude": -6.25103598,
    "longitude": 106.91471494
  },
  {
    "id": 738,
    "name": "Rebecca Mcdonald",
    "latitude": -6.2594309,
    "longitude": 106.85076457
  },
  {
    "id": 739,
    "name": "Jean Hicks",
    "latitude": -6.24017764,
    "longitude": 106.68436806
  },
  {
    "id": 740,
    "name": "Billy Day",
    "latitude": -6.20161096,
    "longitude": 106.87235075
  },
  {
    "id": 741,
    "name": "Howard Watson",
    "latitude": -6.26169258,
    "longitude": 106.89082847
  },
  {
    "id": 742,
    "name": "Patrick Ford",
    "latitude": -6.26511627,
    "longitude": 106.83762624
  },
  {
    "id": 743,
    "name": "Kathy Ortiz",
    "latitude": -6.27685654,
    "longitude": 106.78414426
  },
  {
    "id": 744,
    "name": "Dorothy Moreno",
    "latitude": -6.22568421,
    "longitude": 106.72710979
  },
  {
    "id": 745,
    "name": "Thomas Young",
    "latitude": -6.34769606,
    "longitude": 106.8672727
  },
  {
    "id": 746,
    "name": "Debra Garrett",
    "latitude": -6.22137312,
    "longitude": 106.88801001
  },
  {
    "id": 747,
    "name": "Jason Kennedy",
    "latitude": -6.37089856,
    "longitude": 106.80598509
  },
  {
    "id": 748,
    "name": "Anthony Carter",
    "latitude": -6.188719,
    "longitude": 106.69828057
  },
  {
    "id": 749,
    "name": "Clarence Stewart",
    "latitude": -6.31823836,
    "longitude": 106.75255749
  },
  {
    "id": 750,
    "name": "Craig Gardner",
    "latitude": -6.16171149,
    "longitude": 106.74539279
  },
  {
    "id": 751,
    "name": "Roy Watson",
    "latitude": -6.19491654,
    "longitude": 106.85817552
  },
  {
    "id": 752,
    "name": "Tina Banks",
    "latitude": -6.18421653,
    "longitude": 106.79213384
  },
  {
    "id": 753,
    "name": "Jeffrey Knight",
    "latitude": -6.24550078,
    "longitude": 106.69605172
  },
  {
    "id": 754,
    "name": "Susan Vasquez",
    "latitude": -6.33893057,
    "longitude": 106.82961987
  },
  {
    "id": 755,
    "name": "Stephanie Freeman",
    "latitude": -6.24905467,
    "longitude": 106.90123788
  },
  {
    "id": 756,
    "name": "Louise Murphy",
    "latitude": -6.29568671,
    "longitude": 106.80950706
  },
  {
    "id": 757,
    "name": "Michelle Fox",
    "latitude": -6.20266659,
    "longitude": 106.85854316
  },
  {
    "id": 758,
    "name": "Matthew Miller",
    "latitude": -6.31888682,
    "longitude": 106.6925885
  },
  {
    "id": 759,
    "name": "Jimmy Jones",
    "latitude": -6.29947615,
    "longitude": 106.82843796
  },
  {
    "id": 760,
    "name": "Julia Evans",
    "latitude": -6.24211862,
    "longitude": 106.75555859
  },
  {
    "id": 761,
    "name": "Walter George",
    "latitude": -6.25250025,
    "longitude": 106.90971869
  },
  {
    "id": 762,
    "name": "Maria Simpson",
    "latitude": -6.24948781,
    "longitude": 106.64810709
  },
  {
    "id": 763,
    "name": "Brian Rice",
    "latitude": -6.23307311,
    "longitude": 106.78931486
  },
  {
    "id": 764,
    "name": "Sharon Weaver",
    "latitude": -6.14059683,
    "longitude": 106.85084344
  },
  {
    "id": 765,
    "name": "Tina Lawson",
    "latitude": -6.27563852,
    "longitude": 106.67999626
  },
  {
    "id": 766,
    "name": "Thomas Murray",
    "latitude": -6.20781538,
    "longitude": 106.90484548
  },
  {
    "id": 767,
    "name": "Jane Kelly",
    "latitude": -6.23024263,
    "longitude": 106.65488628
  },
  {
    "id": 768,
    "name": "Cheryl Henderson",
    "latitude": -6.26224133,
    "longitude": 106.83713118
  },
  {
    "id": 769,
    "name": "Paul Sanders",
    "latitude": -6.16245185,
    "longitude": 106.83260791
  },
  {
    "id": 770,
    "name": "Antonio Riley",
    "latitude": -6.27632302,
    "longitude": 106.7287882
  },
  {
    "id": 771,
    "name": "Dorothy Ray",
    "latitude": -6.21805045,
    "longitude": 106.72683631
  },
  {
    "id": 772,
    "name": "Charles Romero",
    "latitude": -6.22359953,
    "longitude": 106.69069253
  },
  {
    "id": 773,
    "name": "Martha Wood",
    "latitude": -6.21038946,
    "longitude": 106.85106924
  },
  {
    "id": 774,
    "name": "Paul Holmes",
    "latitude": -6.23134678,
    "longitude": 106.72088582
  },
  {
    "id": 775,
    "name": "Tammy Elliott",
    "latitude": -6.32315802,
    "longitude": 106.67600891
  },
  {
    "id": 776,
    "name": "Shirley Simpson",
    "latitude": -6.26725454,
    "longitude": 106.7001037
  },
  {
    "id": 777,
    "name": "Amy Fernandez",
    "latitude": -6.27245813,
    "longitude": 106.84204612
  },
  {
    "id": 778,
    "name": "Carol Medina",
    "latitude": -6.23778862,
    "longitude": 106.67424304
  },
  {
    "id": 779,
    "name": "William Moreno",
    "latitude": -6.15709131,
    "longitude": 106.70471354
  },
  {
    "id": 780,
    "name": "Benjamin James",
    "latitude": -6.27515793,
    "longitude": 106.85909831
  },
  {
    "id": 781,
    "name": "Jerry Arnold",
    "latitude": -6.11314796,
    "longitude": 106.76957175
  },
  {
    "id": 782,
    "name": "Anne Long",
    "latitude": -6.17856837,
    "longitude": 106.82054121
  },
  {
    "id": 783,
    "name": "Frances King",
    "latitude": -6.20666552,
    "longitude": 106.66251201
  },
  {
    "id": 784,
    "name": "Jean Lee",
    "latitude": -6.25275822,
    "longitude": 106.82245942
  },
  {
    "id": 785,
    "name": "Lori Lynch",
    "latitude": -6.25620912,
    "longitude": 106.82424508
  },
  {
    "id": 786,
    "name": "Evelyn James",
    "latitude": -6.12019783,
    "longitude": 106.74470229
  },
  {
    "id": 787,
    "name": "Richard Holmes",
    "latitude": -6.20990241,
    "longitude": 106.66700742
  },
  {
    "id": 788,
    "name": "Matthew Alvarez",
    "latitude": -6.3248936,
    "longitude": 106.67828565
  },
  {
    "id": 789,
    "name": "Beverly Nguyen",
    "latitude": -6.3199042,
    "longitude": 106.80238088
  },
  {
    "id": 790,
    "name": "Sandra Reyes",
    "latitude": -6.27592593,
    "longitude": 106.80708395
  },
  {
    "id": 791,
    "name": "Kenneth Diaz",
    "latitude": -6.17140531,
    "longitude": 106.70941191
  },
  {
    "id": 792,
    "name": "Ruth Shaw",
    "latitude": -6.23595776,
    "longitude": 106.84610193
  },
  {
    "id": 793,
    "name": "Kathleen Gordon",
    "latitude": -6.25122787,
    "longitude": 106.72140251
  },
  {
    "id": 794,
    "name": "Lisa Harvey",
    "latitude": -6.28431017,
    "longitude": 106.66339673
  },
  {
    "id": 795,
    "name": "Anthony Harris",
    "latitude": -6.14619392,
    "longitude": 106.75076484
  },
  {
    "id": 796,
    "name": "Sean Dunn",
    "latitude": -6.1823673,
    "longitude": 106.84738744
  },
  {
    "id": 797,
    "name": "Marilyn Crawford",
    "latitude": -6.17566551,
    "longitude": 106.82584431
  },
  {
    "id": 798,
    "name": "Jesse Fields",
    "latitude": -6.15574099,
    "longitude": 106.76998466
  },
  {
    "id": 799,
    "name": "Stephanie Thompson",
    "latitude": -6.13612676,
    "longitude": 106.71585476
  },
  {
    "id": 800,
    "name": "Steven James",
    "latitude": -6.13012298,
    "longitude": 106.74978224
  },
  {
    "id": 801,
    "name": "Kelly Vasquez",
    "latitude": -6.21789547,
    "longitude": 106.84103582
  },
  {
    "id": 802,
    "name": "Chris Martin",
    "latitude": -6.2038889,
    "longitude": 106.78025569
  },
  {
    "id": 803,
    "name": "Douglas Daniels",
    "latitude": -6.27098051,
    "longitude": 106.73260086
  },
  {
    "id": 804,
    "name": "Christina Peters",
    "latitude": -6.13281301,
    "longitude": 106.7100334
  },
  {
    "id": 805,
    "name": "Cheryl Mason",
    "latitude": -6.3507079,
    "longitude": 106.72787684
  },
  {
    "id": 806,
    "name": "Nancy Dunn",
    "latitude": -6.2223959,
    "longitude": 106.71013414
  },
  {
    "id": 807,
    "name": "Michael Brown",
    "latitude": -6.28509198,
    "longitude": 106.70553677
  },
  {
    "id": 808,
    "name": "Steven Riley",
    "latitude": -6.34756255,
    "longitude": 106.8384286
  },
  {
    "id": 809,
    "name": "Wayne Porter",
    "latitude": -6.24086676,
    "longitude": 106.66552909
  },
  {
    "id": 810,
    "name": "Wanda Washington",
    "latitude": -6.37375343,
    "longitude": 106.75076021
  },
  {
    "id": 811,
    "name": "Billy Lawson",
    "latitude": -6.24451264,
    "longitude": 106.85577255
  },
  {
    "id": 812,
    "name": "Linda Williamson",
    "latitude": -6.28237617,
    "longitude": 106.83907077
  },
  {
    "id": 813,
    "name": "Ronald Dixon",
    "latitude": -6.19641391,
    "longitude": 106.82947995
  },
  {
    "id": 814,
    "name": "Jean Ruiz",
    "latitude": -6.16917935,
    "longitude": 106.67407616
  },
  {
    "id": 815,
    "name": "Albert Hall",
    "latitude": -6.31019822,
    "longitude": 106.88795792
  },
  {
    "id": 816,
    "name": "Lawrence Freeman",
    "latitude": -6.26362956,
    "longitude": 106.69182128
  },
  {
    "id": 817,
    "name": "Susan Robertson",
    "latitude": -6.25209123,
    "longitude": 106.68050858
  },
  {
    "id": 818,
    "name": "Walter Robinson",
    "latitude": -6.15581528,
    "longitude": 106.83317387
  },
  {
    "id": 819,
    "name": "Sara Young",
    "latitude": -6.19479024,
    "longitude": 106.87551063
  },
  {
    "id": 820,
    "name": "Billy Larson",
    "latitude": -6.2901894,
    "longitude": 106.6590177
  },
  {
    "id": 821,
    "name": "Julie Fisher",
    "latitude": -6.17857136,
    "longitude": 106.70790439
  },
  {
    "id": 822,
    "name": "Jack Knight",
    "latitude": -6.29074979,
    "longitude": 106.66692191
  },
  {
    "id": 823,
    "name": "George Harrison",
    "latitude": -6.14395098,
    "longitude": 106.8199394
  },
  {
    "id": 824,
    "name": "Peter Garrett",
    "latitude": -6.31676433,
    "longitude": 106.68830479
  },
  {
    "id": 825,
    "name": "Norma Fuller",
    "latitude": -6.21436746,
    "longitude": 106.72505948
  },
  {
    "id": 826,
    "name": "Julie Vasquez",
    "latitude": -6.19260374,
    "longitude": 106.7348938
  },
  {
    "id": 827,
    "name": "Lori Hudson",
    "latitude": -6.34021515,
    "longitude": 106.74299034
  },
  {
    "id": 828,
    "name": "Deborah Scott",
    "latitude": -6.29084351,
    "longitude": 106.84292985
  },
  {
    "id": 829,
    "name": "Brian James",
    "latitude": -6.32611196,
    "longitude": 106.85121687
  },
  {
    "id": 830,
    "name": "Kelly Johnston",
    "latitude": -6.13391768,
    "longitude": 106.79300166
  },
  {
    "id": 831,
    "name": "Fred Graham",
    "latitude": -6.2406251,
    "longitude": 106.70473255
  },
  {
    "id": 832,
    "name": "Lillian Lee",
    "latitude": -6.31406758,
    "longitude": 106.87135871
  },
  {
    "id": 833,
    "name": "Martin Stephens",
    "latitude": -6.14722209,
    "longitude": 106.82223533
  },
  {
    "id": 834,
    "name": "Bonnie Brown",
    "latitude": -6.19486447,
    "longitude": 106.7853638
  },
  {
    "id": 835,
    "name": "Carolyn Hernandez",
    "latitude": -6.30480382,
    "longitude": 106.82140238
  },
  {
    "id": 836,
    "name": "Ryan Murphy",
    "latitude": -6.30713283,
    "longitude": 106.89284313
  },
  {
    "id": 837,
    "name": "Randy Howard",
    "latitude": -6.32244971,
    "longitude": 106.85675164
  },
  {
    "id": 838,
    "name": "Evelyn Carr",
    "latitude": -6.2865411,
    "longitude": 106.70690095
  },
  {
    "id": 839,
    "name": "Carolyn Harvey",
    "latitude": -6.22206187,
    "longitude": 106.89670008
  },
  {
    "id": 840,
    "name": "Norma James",
    "latitude": -6.16018616,
    "longitude": 106.81940693
  },
  {
    "id": 841,
    "name": "Donna Schmidt",
    "latitude": -6.16226849,
    "longitude": 106.85393163
  },
  {
    "id": 842,
    "name": "Jesse Montgomery",
    "latitude": -6.31211414,
    "longitude": 106.81929183
  },
  {
    "id": 843,
    "name": "Kathy Murphy",
    "latitude": -6.21340357,
    "longitude": 106.8221273
  },
  {
    "id": 844,
    "name": "Jack Carpenter",
    "latitude": -6.28225729,
    "longitude": 106.83141032
  },
  {
    "id": 845,
    "name": "Michelle Lawson",
    "latitude": -6.29715059,
    "longitude": 106.83101831
  },
  {
    "id": 846,
    "name": "Heather Patterson",
    "latitude": -6.25558395,
    "longitude": 106.76355713
  },
  {
    "id": 847,
    "name": "Dennis Johnson",
    "latitude": -6.27780411,
    "longitude": 106.8321983
  },
  {
    "id": 848,
    "name": "Dennis James",
    "latitude": -6.17789021,
    "longitude": 106.82779518
  },
  {
    "id": 849,
    "name": "Daniel Fields",
    "latitude": -6.22172792,
    "longitude": 106.65707191
  },
  {
    "id": 850,
    "name": "Gloria Peterson",
    "latitude": -6.33948569,
    "longitude": 106.7586413
  },
  {
    "id": 851,
    "name": "Anna Matthews",
    "latitude": -6.32603416,
    "longitude": 106.71793002
  },
  {
    "id": 852,
    "name": "Willie Sims",
    "latitude": -6.21720079,
    "longitude": 106.71490408
  },
  {
    "id": 853,
    "name": "Louise Black",
    "latitude": -6.18419525,
    "longitude": 106.71843666
  },
  {
    "id": 854,
    "name": "Justin Gomez",
    "latitude": -6.22803937,
    "longitude": 106.90563553
  },
  {
    "id": 855,
    "name": "Robert Pierce",
    "latitude": -6.35495394,
    "longitude": 106.76656842
  },
  {
    "id": 856,
    "name": "Brenda Warren",
    "latitude": -6.29608028,
    "longitude": 106.73310619
  },
  {
    "id": 857,
    "name": "Marilyn Phillips",
    "latitude": -6.31026541,
    "longitude": 106.69161096
  },
  {
    "id": 858,
    "name": "Charles Ramos",
    "latitude": -6.2356003,
    "longitude": 106.71763
  },
  {
    "id": 859,
    "name": "Clarence Stone",
    "latitude": -6.1270745,
    "longitude": 106.84062829
  },
  {
    "id": 860,
    "name": "Jennifer Perez",
    "latitude": -6.16513495,
    "longitude": 106.68779311
  },
  {
    "id": 861,
    "name": "Joan Fox",
    "latitude": -6.29440547,
    "longitude": 106.83369912
  },
  {
    "id": 862,
    "name": "Annie Matthews",
    "latitude": -6.18624805,
    "longitude": 106.84775559
  },
  {
    "id": 863,
    "name": "William Mills",
    "latitude": -6.35506583,
    "longitude": 106.77876228
  },
  {
    "id": 864,
    "name": "Keith Peters",
    "latitude": -6.34290132,
    "longitude": 106.69283677
  },
  {
    "id": 865,
    "name": "Sharon White",
    "latitude": -6.21444572,
    "longitude": 106.74940487
  },
  {
    "id": 866,
    "name": "Benjamin Welch",
    "latitude": -6.20892294,
    "longitude": 106.80808669
  },
  {
    "id": 867,
    "name": "Lori Martin",
    "latitude": -6.25810555,
    "longitude": 106.79886602
  },
  {
    "id": 868,
    "name": "Phillip Kennedy",
    "latitude": -6.14698003,
    "longitude": 106.81364494
  },
  {
    "id": 869,
    "name": "Denise Griffin",
    "latitude": -6.21518594,
    "longitude": 106.68954958
  },
  {
    "id": 870,
    "name": "Daniel Robertson",
    "latitude": -6.36184228,
    "longitude": 106.77205643
  },
  {
    "id": 871,
    "name": "Tina King",
    "latitude": -6.24905428,
    "longitude": 106.65140937
  },
  {
    "id": 872,
    "name": "Joan Fernandez",
    "latitude": -6.21425106,
    "longitude": 106.78861689
  },
  {
    "id": 873,
    "name": "Tina Mcdonald",
    "latitude": -6.31005456,
    "longitude": 106.79069934
  },
  {
    "id": 874,
    "name": "Sandra Hunter",
    "latitude": -6.35843236,
    "longitude": 106.74097555
  },
  {
    "id": 875,
    "name": "Kenneth Johnston",
    "latitude": -6.17350905,
    "longitude": 106.81351565
  },
  {
    "id": 876,
    "name": "Christine Henderson",
    "latitude": -6.11324644,
    "longitude": 106.76902847
  },
  {
    "id": 877,
    "name": "Christopher Ray",
    "latitude": -6.19454289,
    "longitude": 106.73034176
  },
  {
    "id": 878,
    "name": "Randy Lewis",
    "latitude": -6.1769128,
    "longitude": 106.71592211
  },
  {
    "id": 879,
    "name": "Amy Robinson",
    "latitude": -6.34151503,
    "longitude": 106.73531533
  },
  {
    "id": 880,
    "name": "Frank Henderson",
    "latitude": -6.12977272,
    "longitude": 106.82835064
  },
  {
    "id": 881,
    "name": "Martin Woods",
    "latitude": -6.26620471,
    "longitude": 106.73038438
  },
  {
    "id": 882,
    "name": "Dorothy Franklin",
    "latitude": -6.25646107,
    "longitude": 106.77425098
  },
  {
    "id": 883,
    "name": "Diane Rivera",
    "latitude": -6.20459818,
    "longitude": 106.68284002
  },
  {
    "id": 884,
    "name": "Donald Nichols",
    "latitude": -6.24290415,
    "longitude": 106.66363838
  },
  {
    "id": 885,
    "name": "Janet Fisher",
    "latitude": -6.16342882,
    "longitude": 106.75827575
  },
  {
    "id": 886,
    "name": "Arthur Gomez",
    "latitude": -6.17342804,
    "longitude": 106.82001376
  },
  {
    "id": 887,
    "name": "Jose Roberts",
    "latitude": -6.26220674,
    "longitude": 106.78583953
  },
  {
    "id": 888,
    "name": "Beverly Mills",
    "latitude": -6.180167,
    "longitude": 106.76604772
  },
  {
    "id": 889,
    "name": "Mildred Olson",
    "latitude": -6.26015749,
    "longitude": 106.69102972
  },
  {
    "id": 890,
    "name": "Diane Kelley",
    "latitude": -6.21355159,
    "longitude": 106.66587877
  },
  {
    "id": 891,
    "name": "Kathy Gordon",
    "latitude": -6.25073123,
    "longitude": 106.90716031
  },
  {
    "id": 892,
    "name": "Lillian Weaver",
    "latitude": -6.32856041,
    "longitude": 106.69783828
  },
  {
    "id": 893,
    "name": "Theresa Fowler",
    "latitude": -6.12858302,
    "longitude": 106.85136598
  },
  {
    "id": 894,
    "name": "Jerry Riley",
    "latitude": -6.28969774,
    "longitude": 106.83408217
  },
  {
    "id": 895,
    "name": "Shirley Hudson",
    "latitude": -6.32578504,
    "longitude": 106.79965661
  },
  {
    "id": 896,
    "name": "Jane Arnold",
    "latitude": -6.37477022,
    "longitude": 106.79788668
  },
  {
    "id": 897,
    "name": "Rebecca Watkins",
    "latitude": -6.27622298,
    "longitude": 106.76296589
  },
  {
    "id": 898,
    "name": "Melissa Ruiz",
    "latitude": -6.33002638,
    "longitude": 106.74356361
  },